$GPGSV,3,1,12,01,48,271,,03,33,198,37,31,50,073,31,13,06,323,*71
$GPGSV,3,2,12,06,48,181,28,21,07,092,28,16,66,316,26,29,13,039,*72
$GPGSV,3,3,12,23,31,312,,14,13,154,26,32,16,236,23,20,11,254,20*79
$GPGGA,004232.0,3109.564638,N,12122.588778,E,1,08,1.4,18.0,M,,,,*32
$GPRMC,004232.0,A,3109.564638,N,12122.588778,E,1.6,78.5,260910,,,A*56
$GPGSA,A,3,03,31,06,21,16,14,32,20,,,,,,2.3,1.4,1.8*16
$GPVTG,78.5,T,,M,1.6,N,3.0,K*5E
$GPGSV,3,1,12,01,48,271,,03,33,198,39,31,50,073,31,13,06,323,*7F
$GPGSV,3,2,12,06,48,181,31,21,07,092,29,16,66,316,30,29,13,039,*7C
$GPGSV,3,3,12,23,31,312,,14,13,154,29,32,16,236,24,20,11,254,20*71
$GPGGA,004233.0,3109.564465,N,12122.589487,E,1,08,1.4,18.0,M,,,,*3B
$GPRMC,004233.0,A,3109.564465,N,12122.589487,E,2.0,90.0,260910,,,A*59
$GPGSA,A,3,03,31,06,21,16,14,32,255,,,,,,2.4,1.4,1.8*21
$GPVTG,90.0,T,,M,2.0,N,3.7,K*5F
$GPGSV,3,1,12,01,48,271,,03,33,198,39,31,50,073,32,13,06,323,*7C
$GPGSV,3,2,12,06,48,181,34,21,07,092,30,16,66,316,31,29,13,039,*70
$GPGSV,3,3,12,23,31,312,,14,13,154,29,32,16,236,20,20,11,254,23*76
$GPGGA,004234.0,3109.564402,N,12122.590246,E,1,08,1.5,17.5,M,,,,*35
$GPRMC,004234.0,A,3109.564402,N,12122.590246,E,1.9,86.4,260910,,,A*55
$GPGSA,A,3,03,31,06,21,16,14,32,20,,,,,,2.5,1.5,1.9*10
$GPVTG,86.4,T,,M,1.9,N,3.5,K*54
$GPGSV,3,1,12,01,48,271,,03,33,198,38,31,50,073,31,13,06,323,*7E
$GPGSV,3,2,12,06,48,181,33,21,07,092,28,16,66,316,33,29,13,039,*7C
$GPGSV,3,3,12,23,31,312,,14,13,154,28,32,16,236,20,20,11,254,24*70
$GPGGA,004235.0,3109.564384,N,12122.591031,E,1,08,1.5,17.5,M,,,,*3E
$GPRMC,004235.0,A,3109.564384,N,12122.591031,E,2.2,93.9,260910,,,A*5F
$GPGSA,A,3,03,31,06,21,16,14,32,20,,,,,,2.5,1.5,2.0*1A
$GPVTG,93.9,T,,M,2.2,N,4.1,K*56
$GPGSV,3,1,12,01,48,271,,03,33,198,37,31,50,073,33,13,06,323,*73
$GPGSV,3,2,12,06,48,181,31,21,07,092,30,16,66,316,30,29,13,039,*74
$GPGSV,3,3,12,23,32,312,,14,13,154,28,32,16,236,22,20,11,254,26*73
$GPGGA,004236.0,3109.564228,N,12122.591851,E,1,08,1.5,17.5,M,,,,*34
$GPRMC,004236.0,A,3109.564228,N,12122.591851,E,2.3,101.7,260910,,,A*60
$GPGSA,A,3,03,31,06,21,16,14,32,20,,,,,,2.4,1.5,1.9*11
$GPVTG,101.7,T,,M,2.3,N,4.3,K*61
$GPGSV,3,1,12,01,38,040,,03,33,198,36,31,51,071,34,13,04,323,*73
$GPGSV,3,2,12,06,47,181,32,21,07,094,30,16,66,312,31,29,14,040,*72
$GPGSV,3,3,12,23,30,313,,14,14,153,27,32,17,237,25,20,12,255,26*7A
$GPGSV,3,1,12,01,48,271,,03,33,198,35,31,50,073,38,13,06,323,*7A
$GPGSV,3,2,12,06,48,181,31,21,07,092,30,16,66,316,29,29,13,039,*7C
$GPGSV,3,3,12,23,32,312,,14,13,154,23,32,16,236,25,20,11,254,23*7A
$GPGGA,004238.0,3109.563881,N,12122.593581,E,1,08,1.4,18.0,M,,,,*3D
$GPRMC,004238.0,A,3109.563881,N,12122.593581,E,2.2,101.6,260910,,,A*62
$GPGSA,A,3,03,31,06,21,16,14,32,20,,,,,,2.3,1.4,1.8*16
$GPVTG,101.6,T,,M,2.2,N,4.1,K*63
$GPGSV,3,1,12,01,48,271,,03,33,198,31,31,50,074,38,13,06,323,*79
$GPGSV,3,2,12,06,48,181,25,21,07,092,26,16,66,316,24,29,13,039,*73
$GPGSV,3,3,12,23,32,312,,14,13,154,24,32,16,236,22,20,11,254,25*7C
$GPGGA,004239.0,3109.563821,N,12122.594250,E,1,08,1.4,17.5,M,,,,*30
$GPRMC,004239.0,A,3109.563821,N,12122.594250,E,1.9,91.8,260910,,,A*5B
$GPGSA,A,3,03,31,06,21,16,14,32,20,,,,,,2.2,1.4,1.7*18
$GPVTG,91.8,T,,M,1.9,N,3.5,K*5E
$GPGSV,3,1,12,01,48,271,,03,33,198,33,31,50,074,38,13,06,323,*7B
$GPGSV,3,2,12,06,48,181,27,21,07,092,27,16,66,316,31,29,13,039,*74
$GPGSV,3,3,12,23,32,312,,14,13,154,20,32,16,236,23,20,11,254,27*7B
$GPGGA,004240.0,3109.563615,N,12122.595120,E,1,08,1.4,18.0,M,,,,*38
$GPRMC,004240.0,A,3109.563615,N,12122.595120,E,2.0,100.0,260910,,,A*62
$GPGSA,A,3,03,31,06,21,16,14,32,20,,,,,,2.2,1.4,1.7*18
$GPVTG,100.0,T,,M,2.0,N,3.8,K*68
$GPGSV,3,1,12,01,48,271,,03,33,198,29,31,50,074,36,13,06,323,*7E
$GPGSV,3,2,12,06,48,181,25,21,07,092,28,16,66,316,30,29,13,039,*78
$GPGSV,3,3,12,23,32,312,,14,13,154,25,32,16,236,23,20,11,254,23*7A
$GPGGA,004241.0,3109.563524,N,12122.595914,E,1,08,1.4,18.0,M,,,,*37
$GPRMC,004241.0,A,3109.563524,N,12122.595914,E,2.1,94.8,260910,,,A*58
$GPGSA,A,3,03,31,06,21,16,14,20,255,,,,,,2.2,1.4,1.6*2A
$GPVTG,94.8,T,,M,2.1,N,4.0,K*52
$GPGSV,3,1,12,01,48,271,,03,33,198,35,31,50,074,33,13,06,323,*76
$GPGSV,3,2,12,06,48,181,30,21,07,092,26,16,66,316,30,29,13,039,*72
$GPGSV,3,3,12,23,32,312,,14,13,154,21,32,16,236,24,20,11,254,25*7F
$GPGGA,004242.0,3109.563494,N,12122.596684,E,1,08,1.3,18.0,M,,,,*3C
$GPRMC,004242.0,A,3109.563494,N,12122.596684,E,2.1,94.0,260910,,,A*5C
$GPGSA,A,3,03,31,06,21,16,14,32,20,,,,,,2.1,1.3,1.6*1D
$GPVTG,94.0,T,,M,2.1,N,4.0,K*5A
$GPGSV,3,1,12,01,48,271,,03,33,198,34,31,50,074,36,13,06,323,*72
$GPGSV,3,2,12,06,48,181,29,21,07,092,25,16,66,316,31,29,13,039,*78
$GPGSV,3,3,12,23,32,312,,14,13,154,21,32,16,236,22,20,11,254,25*79
$GPGGA,004243.0,3109.563325,N,12122.597549,E,1,08,1.3,18.0,M,,,,*33
$GPRMC,004243.0,A,3109.563325,N,12122.597549,E,2.3,93.7,260910,,,A*51
$GPGSA,A,3,03,31,06,21,16,32,20,255,,,,,,2.3,1.3,1.9*27
$GPVTG,93.7,T,,M,2.3,N,4.3,K*5B
$GPGSV,3,1,12,01,48,271,,03,33,198,31,31,50,074,38,13,06,323,*79
$GPGSV,3,2,12,06,48,181,30,21,07,092,31,16,66,316,33,29,13,039,*77
$GPGSV,3,3,12,23,32,312,,14,13,154,21,32,16,236,22,20,11,254,21*7D
$GPGGA,004244.0,3109.563320,N,12122.598484,E,1,08,1.4,17.5,M,,,,*33
$GPRMC,004244.0,A,3109.563320,N,12122.598484,E,2.3,86.4,260910,,,A*5B
$GPGSA,A,3,03,31,06,21,16,14,32,20,,,,,,2.4,1.4,2.0*1A
$GPVTG,86.4,T,,M,2.3,N,4.3,K*5C
$GPGSV,3,1,12,01,48,271,,03,33,198,37,31,50,074,37,13,06,323,*70
$GPGSV,3,2,12,06,48,181,32,21,07,092,28,16,66,316,27,29,13,039,*78
$GPGSV,3,3,12,23,32,312,,14,13,154,21,32,16,236,23,20,11,254,22*7F
$GPGGA,004245.0,3109.563351,N,12122.599254,E,1,08,1.5,17.5,M,,,,*3F
$GPRMC,004245.0,A,3109.563351,N,12122.599254,E,2.0,83.2,260910,,,A*56
$GPGSA,A,3,03,31,06,21,16,14,32,20,,,,,,2.4,1.5,1.9*11
$GPVTG,83.2,T,,M,2.0,N,3.7,K*5F
$GPGSV,3,1,12,01,48,271,,03,34,198,39,31,50,074,40,13,06,323,*79
$GPGSV,3,2,12,06,48,181,31,21,07,092,24,16,66,316,32,29,13,039,*73
$GPGSV,3,3,12,23,32,312,,14,13,154,23,32,16,236,23,20,11,254,23*7C
$GPGGA,004246.0,3109.563265,N,12122.599953,E,1,08,1.5,17.0,M,,,,*33
$GPRMC,004246.0,A,3109.563265,N,12122.599953,E,1.9,82.0,260910,,,A*56
$GPGSA,A,3,03,31,06,21,16,14,20,255,,,,,,2.7,1.5,2.3*28
$GPVTG,82.0,T,,M,1.9,N,3.6,K*57
$GPGSV,3,1,12,01,48,271,,03,34,198,39,31,50,074,36,13,06,323,*78
$GPGSV,3,2,12,06,48,181,28,21,07,092,24,16,66,316,34,29,13,039,*7D
$GPGSV,3,3,12,23,32,312,,14,13,154,20,32,16,236,24,20,11,254,*79
$GPGGA,004247.0,3109.563104,N,12122.600808,E,1,08,1.8,16.5,M,,,,*33
$GPRMC,004247.0,A,3109.563104,N,12122.600808,E,2.0,84.0,260910,,,A*53
$GPGSA,A,3,03,31,06,21,16,14,32,255,,,,,,3.6,1.8,3.1*25
$GPVTG,84.0,T,,M,2.0,N,3.7,K*5A
$GPGSV,3,1,12,01,48,271,,03,34,198,36,31,50,074,35,13,06,323,*74
$GPGSV,3,2,12,06,48,181,27,21,07,092,27,16,66,316,32,29,13,039,*77
$GPGSV,3,3,12,23,32,312,,14,13,154,22,32,16,236,24,20,11,254,23*7A
$GPGGA,004248.0,3109.563034,N,12122.601572,E,1,08,1.7,16.5,M,,,,*30
$GPRMC,004248.0,A,3109.563034,N,12122.601572,E,2.1,86.8,260910,,,A*54
$GPGSA,A,3,03,31,06,21,16,14,32,255,,,,,,3.5,1.7,3.0*28
$GPVTG,86.8,T,,M,2.1,N,3.9,K*5F
$GPGSV,3,1,12,01,48,271,,03,34,198,31,31,50,074,36,13,06,323,*70
$GPGSV,3,2,12,06,48,181,26,21,07,092,24,16,66,316,34,29,13,039,*73
$GPGSV,3,3,12,23,32,312,,14,13,154,20,32,16,236,23,20,11,254,23*7F
$GPGGA,004249.0,3109.563061,N,12122.602291,E,1,08,1.7,16.0,M,,,,*3D
$GPRMC,004249.0,A,3109.563061,N,12122.602291,E,1.9,86.4,260910,,,A*5B
$GPGSA,A,3,03,31,06,21,16,14,32,255,,,,,,3.5,1.7,3.1*29
$GPVTG,86.4,T,,M,1.9,N,3.5,K*54
$GPGSV,3,1,12,01,48,271,,03,34,198,37,31,50,074,38,13,06,323,*78
$GPGSV,3,2,12,06,48,181,30,21,07,092,24,16,66,316,30,29,13,039,*70
$GPGSV,3,3,12,23,32,312,,14,13,154,23,32,16,236,23,20,11,254,23*7C
$GPGGA,004250.0,3109.563061,N,12122.602844,E,1,08,1.7,15.5,M,,,,*31
$GPRMC,004250.0,A,3109.563061,N,12122.602844,E,1.5,78.5,260910,,,A*5D
$GPGSA,A,3,03,31,06,21,16,14,32,255,,,,,,3.5,1.7,3.1*29
$GPVTG,78.5,T,,M,1.5,N,2.7,K*5B
$GPGSV,3,1,12,01,48,271,,03,34,198,34,31,50,074,37,13,06,323,*74
$GPGSV,3,2,12,06,48,181,28,21,07,092,25,16,66,316,29,29,13,039,*70
$GPGSV,3,3,12,23,32,312,,14,13,154,28,32,16,236,26,20,11,254,23*72
$GPGGA,004251.0,3109.563162,N,12122.603413,E,1,08,1.7,15.0,M,,,,*38
$GPRMC,004251.0,A,3109.563162,N,12122.603413,E,1.3,78.4,260910,,,A*56
$GPGSA,A,3,03,31,06,21,16,14,32,255,,,,,,3.5,1.7,3.0*28
$GPVTG,78.4,T,,M,1.3,N,2.5,K*5E
$GPGSV,3,1,12,01,48,272,,03,34,198,37,31,50,074,33,13,06,323,*70
$GPGSV,3,2,12,06,48,181,28,21,07,092,24,16,66,316,25,29,13,039,*7D
$GPGSV,3,3,12,23,32,312,,14,13,154,24,32,16,236,25,20,11,254,23*7D
$GPGGA,004252.0,3109.563318,N,12122.603825,E,1,08,1.7,14.0,M,,,,*3C
$GPRMC,004252.0,A,3109.563318,N,12122.603825,E,1.2,78.4,260910,,,A*52
$GPGSA,A,3,03,31,06,21,16,14,32,255,,,,,,3.0,1.7,2.5*29
$GPVTG,78.4,T,,M,1.2,N,2.2,K*58
$GPGSV,3,1,12,01,48,272,,03,34,198,34,31,50,074,34,13,06,323,*74
$GPGSV,3,2,12,06,48,181,26,21,07,092,20,16,66,316,27,29,13,039,*75
$GPGSV,3,3,12,23,32,312,,14,13,154,21,32,16,236,27,20,11,254,23*7A
$GPGGA,004253.0,3109.563449,N,12122.604278,E,1,07,1.7,13.0,M,,,,*33
$GPRMC,004253.0,A,3109.563449,N,12122.604278,E,1.2,78.7,260910,,,A*56
$GPGSA,A,3,03,31,06,21,16,14,32,,,,,,,3.4,1.7,2.9*13
$GPVTG,78.7,T,,M,1.2,N,2.2,K*5B
$GPGSV,1,1,00*79
$GPGGA,004254.0,3109.563456,N,12122.604836,E,1,07,1.8,12.0,M,,,,*34
$GPRMC,004254.0,A,3109.563456,N,12122.604836,E,1.4,79.2,260910,,,A*5D
$GPGSA,A,3,03,31,06,21,16,32,255,,,,,,,3.7,1.8,3.3*23
$GPVTG,79.2,T,,M,1.4,N,2.6,K*5D
$GPGSV,3,1,12,01,48,272,,03,34,198,37,31,50,074,35,13,06,323,*76
$GPGSV,3,2,12,06,48,181,28,21,07,092,24,16,66,316,32,29,13,039,*7B
$GPGSV,3,3,12,23,32,312,,14,13,154,28,32,16,236,22,20,11,254,*77
$GPGGA,004255.0,3109.563348,N,12122.605439,E,1,07,1.8,11.5,M,,,,*39
$GPRMC,004255.0,A,3109.563348,N,12122.605439,E,1.8,90.0,260910,,,A*5F
$GPGSA,A,3,03,31,06,21,16,14,255,,,,,,,3.8,1.8,3.3*28
$GPVTG,90.0,T,,M,1.8,N,3.4,K*57
$GPGSV,1,1,00*79
$GPGGA,004256.0,3109.563235,N,12122.606048,E,1,07,1.5,11.0,M,,,,*38
$GPRMC,004256.0,A,3109.563235,N,12122.606048,E,1.7,99.3,260910,,,A*53
$GPGSA,A,3,03,31,06,21,16,14,32,,,,,,,2.9,1.5,2.5*11
$GPVTG,99.3,T,,M,1.7,N,3.1,K*57
$GPGSV,3,1,12,01,48,272,,03,34,198,29,31,50,074,28,13,06,323,*75
$GPGSV,3,2,12,06,48,181,22,21,07,092,21,16,66,316,30,29,13,039,*76
$GPGSV,3,3,12,23,32,312,,14,13,154,20,32,16,236,22,20,11,254,*7F
$GPGGA,004257.0,3109.563170,N,12122.606682,E,1,07,1.4,11.0,M,,,,*3A
$GPRMC,004257.0,A,3109.563170,N,12122.606682,E,1.8,90.9,260910,,,A*5C
$GPGSA,A,3,03,31,06,21,16,14,32,,,,,,,2.9,1.4,2.5*10
$GPVTG,90.9,T,,M,1.8,N,3.4,K*5E
$GPGSV,3,1,12,01,48,272,,03,34,198,32,31,50,074,30,13,06,323,*76
$GPGSV,3,2,12,06,48,181,28,21,07,092,21,16,66,316,29,29,13,039,*74
$GPGSV,3,3,12,23,32,312,,14,13,154,25,32,16,236,21,20,11,254,*79
$GPGGA,004258.0,3109.563147,N,12122.607381,E,1,07,1.5,11.0,M,,,,*37
$GPRMC,004258.0,A,3109.563147,N,12122.607381,E,2.1,90.8,260910,,,A*5B
$GPGSA,A,3,03,31,06,16,14,32,255,,,,,,,3.0,1.5,2.6*2B
$GPVTG,90.8,T,,M,2.1,N,4.0,K*56
$GPGSV,3,1,12,01,48,272,,03,34,198,33,31,50,074,28,13,06,323,*7E
$GPGSV,3,2,12,06,48,181,28,21,07,092,22,16,66,316,31,29,13,039,*7E
$GPGSV,3,3,12,23,32,312,15,14,13,154,22,32,16,236,26,20,11,254,*7D
$GPGGA,004259.0,3109.563006,N,12122.608175,E,1,07,1.4,11.0,M,,,,*35
$GPRMC,004259.0,A,3109.563006,N,12122.608175,E,2.1,93.3,260910,,,A*50
$GPGSA,A,3,03,31,06,21,16,14,32,,,,,,,2.9,1.4,2.5*10
$GPVTG,93.3,T,,M,2.1,N,3.8,K*51
$GPGSV,3,1,12,01,48,272,,03,34,198,33,31,50,074,28,13,06,323,*7E
$GPGSV,3,2,12,06,48,181,25,21,07,092,23,16,66,316,30,29,13,039,*73
$GPGSV,3,3,12,23,32,312,15,14,13,154,27,32,16,236,28,20,11,254,*76
$GPGGA,004300.0,3109.562823,N,12122.608975,E,1,07,1.4,11.5,M,,,,*3B
$GPRMC,004300.0,A,3109.562823,N,12122.608975,E,2.2,93.8,260910,,,A*53
$GPGSA,A,3,03,31,06,21,16,14,32,,,,,,,2.8,1.4,2.4*10
$GPVTG,93.8,T,,M,2.2,N,4.1,K*57
$GPGSV,3,1,12,01,48,272,,03,34,198,28,31,50,074,35,13,06,323,*78
$GPGSV,3,2,12,06,48,181,31,21,07,092,22,16,66,316,30,29,13,039,*77
$GPGSV,3,3,12,23,32,312,15,14,13,154,25,32,16,236,27,20,11,254,*7B
$GPGGA,004301.0,3109.562772,N,12122.609900,E,1,07,1.4,12.0,M,,,,*34
$GPRMC,004301.0,A,3109.562772,N,12122.609900,E,2.5,98.3,260910,,,A*5D
$GPGSA,A,3,03,31,06,21,16,14,32,,,,,,,2.6,1.4,2.2*18
$GPVTG,98.3,T,,M,2.5,N,4.6,K*57
$GPGSV,3,1,12,01,48,272,,03,34,198,31,31,50,074,33,13,06,323,*76
$GPGSV,3,2,12,06,48,181,26,21,07,092,23,16,66,316,30,29,13,039,*70
$GPGSV,3,3,12,23,32,312,14,14,13,154,24,32,16,236,27,20,11,254,*7B
$GPGGA,004302.0,3109.562624,N,12122.610861,E,1,07,1.4,12.0,M,,,,*3B
$GPRMC,004302.0,A,3109.562624,N,12122.610861,E,2.4,96.3,260910,,,A*5D
$GPGSA,A,3,03,31,06,21,16,14,32,,,,,,,2.6,1.4,2.2*18
$GPVTG,96.3,T,,M,2.4,N,4.5,K*5B
$GPGSV,3,1,12,01,48,272,,03,34,198,35,31,50,074,37,13,06,323,*76
$GPGSV,3,2,12,06,48,181,27,21,07,092,24,16,66,316,28,29,13,039,*7F
$GPGSV,3,3,12,23,32,312,14,14,13,154,24,32,16,236,26,20,11,254,*7A
$GPGGA,004303.0,3109.562481,N,12122.611781,E,1,07,1.4,12.5,M,,,,*32
$GPRMC,004303.0,A,3109.562481,N,12122.611781,E,2.3,95.9,260910,,,A*5F
$GPGSA,A,3,03,31,06,21,16,14,32,,,,,,,2.6,1.4,2.2*18
$GPVTG,95.9,T,,M,2.3,N,4.3,K*53
$GPGSV,3,1,12,01,48,272,,03,34,198,37,31,50,074,34,13,06,323,*77
$GPGSV,3,2,12,06,48,181,28,21,07,092,25,16,66,316,30,29,13,039,15*7C
$GPGSV,3,3,12,23,32,312,14,14,13,154,27,32,16,236,25,20,11,254,*7A
$GPGGA,004304.0,3109.562380,N,12122.612712,E,1,07,1.5,13.0,M,,,,*3F
$GPRMC,004304.0,A,3109.562380,N,12122.612712,E,2.5,97.5,260910,,,A*5F
$GPGSA,A,3,03,31,06,21,16,14,32,,,,,,,2.8,1.5,2.3*16
$GPVTG,97.5,T,,M,2.5,N,4.7,K*5F
$GPGSV,3,1,12,01,48,272,,03,34,198,37,31,50,074,34,13,06,323,*77
$GPGSV,3,2,12,06,48,181,30,21,07,092,25,16,66,316,34,29,13,039,15*71
$GPGSV,3,3,12,23,32,312,14,14,13,154,22,32,16,236,25,20,11,254,*7F
$GPGGA,004305.0,3109.562478,N,12122.613662,E,1,07,1.5,13.0,M,,,,*39
$GPRMC,004305.0,A,3109.562478,N,12122.613662,E,2.5,99.0,260910,,,A*52
$GPGSA,A,3,03,31,06,21,16,14,32,,,,,,,2.9,1.5,2.4*10
$GPVTG,99.0,T,,M,2.5,N,4.6,K*55
$GPGSV,3,1,12,01,48,272,,03,34,198,27,31,50,074,29,13,06,323,*7A
$GPGSV,3,2,12,06,48,181,25,21,07,092,20,16,66,316,25,29,13,039,15*70
$GPGSV,3,3,12,23,32,312,14,14,13,154,25,32,16,236,22,20,11,254,*7F
$GPGGA,004306.0,3109.562453,N,12122.614371,E,1,07,1.5,13.0,M,,,,*33
$GPRMC,004306.0,A,3109.562453,N,12122.614371,E,2.0,94.2,260910,,,A*52
$GPGSA,A,3,03,31,06,21,16,14,32,,,,,,,2.7,1.5,2.3*19
$GPVTG,94.2,T,,M,2.0,N,3.7,K*59
$GPGSV,3,1,12,01,48,272,,03,34,198,28,31,50,074,29,13,06,323,*75
$GPGSV,3,2,12,06,48,181,32,21,07,092,25,16,66,316,28,29,13,039,15*7E
$GPGSV,3,3,12,23,32,312,14,14,13,154,27,32,16,236,22,20,11,254,22*7D
$GPGGA,004307.0,3109.562385,N,12122.615131,E,1,07,1.5,13.5,M,,,,*3C
$GPRMC,004307.0,A,3109.562385,N,12122.615131,E,2.2,97.7,260910,,,A*5C
$GPGSA,A,3,03,31,06,21,16,14,255,,,,,,,2.7,1.5,2.2*2B
$GPVTG,97.7,T,,M,2.2,N,4.1,K*5C
$GPGSV,3,1,12,01,48,272,,03,34,198,30,31,50,074,30,13,06,323,*74
$GPGSV,3,2,12,06,48,181,30,21,07,092,22,16,66,316,31,29,13,039,15*73
$GPGSV,3,3,12,23,32,312,14,14,13,154,25,32,16,236,22,20,11,254,22*7F
$GPGGA,004308.0,3109.562237,N,12122.615975,E,1,07,1.5,13.5,M,,,,*33
$GPRMC,004308.0,A,3109.562237,N,12122.615975,E,2.6,101.7,260910,,,A*69
$GPGSA,A,3,03,31,06,21,16,14,255,,,,,,,2.8,1.5,2.4*22
$GPVTG,101.7,T,,M,2.6,N,4.9,K*6E
$GPGSV,3,1,12,01,48,272,,03,34,198,30,31,50,074,33,13,06,323,*77
$GPGSV,3,2,12,06,48,181,27,21,07,092,25,16,66,316,30,29,13,039,15*73
$GPGSV,3,3,12,23,32,312,14,14,13,154,26,32,16,236,21,20,11,254,19*77
$GPGGA,004309.0,3109.562151,N,12122.616695,E,1,07,1.2,13.5,M,,,,*34
$GPRMC,004309.0,A,3109.562151,N,12122.616695,E,2.1,101.3,260910,,,A*6A
$GPGSA,A,3,03,31,06,21,16,14,32,,,,,,,2.3,1.2,1.9*13
$GPVTG,101.3,T,,M,2.1,N,3.9,K*6A
$GPGSV,3,1,12,01,48,272,,03,34,198,33,31,50,074,35,13,06,323,*72
$GPGSV,3,2,12,06,48,181,28,21,07,092,25,16,66,316,28,29,13,039,15*75
$GPGSV,3,3,12,23,32,312,14,14,13,154,23,32,16,236,23,20,11,254,19*70
$GPGGA,004310.0,3109.562146,N,12122.617560,E,1,07,1.3,13.5,M,,,,*33
$GPRMC,004310.0,A,3109.562146,N,12122.617560,E,2.1,90.0,260910,,,A*56
$GPGSA,A,3,03,31,06,21,16,14,32,,,,,,,2.4,1.3,2.0*1F
$GPVTG,90.0,T,,M,2.1,N,3.9,K*50
$GPGSV,3,1,12,01,48,272,,03,34,198,26,31,50,074,29,13,06,323,*7B
$GPGSV,3,2,12,06,48,181,27,21,07,092,25,16,66,316,24,29,13,039,15*76
$GPGSV,3,3,12,23,32,312,14,14,13,154,24,32,16,236,21,20,11,254,19*75
$GPGGA,004311.0,3109.562164,N,12122.618279,E,1,07,1.2,13.5,M,,,,*33
$GPRMC,004311.0,A,3109.562164,N,12122.618279,E,2.1,85.2,260910,,,A*51
$GPGSA,A,3,03,31,06,21,16,14,32,,,,,,,2.0,1.2,1.5*1C
$GPVTG,85.2,T,,M,2.1,N,4.0,K*58
$GPGSV,3,1,12,01,48,272,,03,34,198,26,31,50,074,29,13,06,323,*7B
$GPGSV,3,2,12,06,48,181,31,21,07,092,27,16,66,316,29,29,13,039,15*7E
$GPGSV,3,3,12,23,32,312,14,14,13,154,23,32,16,236,28,20,11,254,19*7B
$GPGGA,004312.0,3109.562144,N,12122.619099,E,1,07,1.4,14.0,M,,,,*3B
$GPRMC,004312.0,A,3109.562144,N,12122.619099,E,2.2,90.0,260910,,,A*58
$GPGSA,A,3,03,31,06,21,16,14,32,,,,,,,2.3,1.4,1.8*14
$GPVTG,90.0,T,,M,2.2,N,4.0,K*5D
$GPGSV,3,1,12,01,48,272,,03,34,198,30,31,50,074,26,13,06,323,*73
$GPGSV,3,2,12,06,48,181,30,21,07,092,21,16,66,316,26,29,13,039,15*76
$GPGSV,3,3,12,23,32,312,14,14,13,154,25,32,16,236,28,20,11,254,19*7D
$GPGGA,004313.0,3109.562144,N,12122.619732,E,1,07,1.4,14.0,M,,,,*3C
$GPRMC,004313.0,A,3109.562144,N,12122.619732,E,1.8,88.1,260910,,,A*5E
$GPGSA,A,3,03,31,06,21,16,14,255,,,,,,,2.4,1.4,1.9*21
$GPVTG,88.1,T,,M,1.8,N,3.3,K*58
$GPGSV,3,1,12,01,48,272,,03,34,198,28,31,50,074,26,13,06,323,*7A
$GPGSV,3,2,12,06,48,181,34,21,07,092,22,16,66,316,30,29,13,039,15*76
$GPGSV,3,3,12,23,32,312,14,14,13,154,28,32,16,236,27,20,11,254,19*7F
$GPGGA,004314.0,3109.562101,N,12122.620386,E,1,07,1.3,14.5,M,,,,*39
$GPRMC,004314.0,A,3109.562101,N,12122.620386,E,1.7,93.9,260910,,,A*54
$GPGSA,A,3,03,31,06,21,16,14,32,,,,,,,2.3,1.3,1.8*13
$GPVTG,93.9,T,,M,1.7,N,3.2,K*54
$GPGSV,3,1,12,01,48,272,,03,34,198,33,31,50,074,32,13,06,323,*75
$GPGSV,3,2,12,06,48,181,27,21,07,092,22,16,66,316,32,29,13,039,15*76
$GPGSV,3,3,12,23,32,312,14,14,13,154,26,32,16,236,25,20,11,254,19*73
$GPGGA,004315.0,3109.562063,N,12122.621090,E,1,07,1.3,15.0,M,,,,*3C
$GPRMC,004315.0,A,3109.562063,N,12122.621090,E,1.8,92.8,260910,,,A*5A
$GPGSA,A,3,03,31,06,21,16,14,32,,,,,,,2.4,1.3,2.0*1F
$GPVTG,92.8,T,,M,1.8,N,3.4,K*5D
$GPGSV,3,1,12,01,48,272,,03,34,198,31,31,50,074,26,13,06,323,*72
$GPGSV,3,2,12,06,49,181,28,21,07,092,22,16,66,316,32,29,13,039,15*78
$GPGSV,3,3,12,23,32,312,14,14,13,154,24,32,16,236,24,20,11,254,19*70
$GPGGA,004316.0,3109.561920,N,12122.621759,E,1,07,1.3,15.0,M,,,,*30
$GPRMC,004316.0,A,3109.561920,N,12122.621759,E,1.9,100.8,260910,,,A*6D
$GPGSA,A,3,03,31,06,21,16,14,32,,,,,,,2.5,1.3,2.1*1F
$GPVTG,100.8,T,,M,1.9,N,3.5,K*67
$GPGSV,3,1,12,01,48,272,,03,34,198,23,31,50,074,24,13,06,323,*73
$GPGSV,3,2,12,06,49,181,32,21,07,092,21,16,66,316,28,29,13,039,15*7B
$GPGSV,3,3,12,23,32,312,14,14,13,154,26,32,16,236,24,20,11,254,19*72
$GPGGA,004317.0,3109.561804,N,12122.622423,E,1,07,1.2,15.5,M,,,,*3F
$GPRMC,004317.0,A,3109.561804,N,12122.622423,E,2.1,99.7,260910,,,A*53
$GPGSA,A,3,03,31,06,21,16,14,255,,,,,,,2.2,1.2,1.7*2F
$GPVTG,99.7,T,,M,2.1,N,3.9,K*5E
$GPGSV,3,1,12,01,48,272,,03,34,198,25,31,50,074,28,13,06,323,*79
$GPGSV,3,2,12,06,49,181,25,21,07,092,21,16,66,317,28,29,13,039,15*7C
$GPGSV,3,3,12,23,32,312,14,14,13,154,25,32,16,236,23,20,11,254,19*76
$GPGGA,004318.0,3109.561759,N,12122.623197,E,1,07,1.3,15.5,M,,,,*3D
$GPRMC,004318.0,A,3109.561759,N,12122.623197,E,2.3,94.5,260910,,,A*5D
$GPGSA,A,3,03,31,06,16,14,32,255,,,,,,,2.4,1.3,2.0*2E
$GPVTG,94.5,T,,M,2.3,N,4.2,K*5F
$GPGSV,3,1,12,01,48,272,,03,34,198,31,31,50,074,30,13,06,323,*75
$GPGSV,3,2,12,06,49,181,28,21,07,092,21,16,66,317,29,29,13,039,15*70
$GPGSV,3,3,12,23,32,312,14,14,13,154,29,32,16,236,23,20,11,254,19*7A
$GPGGA,004319.0,3109.561548,N,12122.624017,E,1,07,1.4,16.0,M,,,,*31
$GPRMC,004319.0,A,3109.561548,N,12122.624017,E,2.3,98.0,260910,,,A*59
$GPGSA,A,3,03,31,06,21,16,14,255,,,,,,,2.5,1.4,2.1*2B
$GPVTG,98.0,T,,M,2.3,N,4.3,K*57
$GPGSV,3,1,12,01,48,272,,03,34,198,34,31,50,074,27,13,06,323,*76
$GPGSV,3,2,12,06,49,181,34,21,07,092,21,16,66,317,26,29,13,039,15*72
$GPGSV,3,3,12,23,32,312,14,14,13,154,30,32,16,236,23,20,11,254,19*72
$GPGGA,004320.0,3109.561135,N,12122.624797,E,1,07,1.4,17.0,M,,,,*3B
$GPRMC,004320.0,A,3109.561135,N,12122.624797,E,2.3,103.2,260910,,,A*63
$GPGSA,A,3,03,31,06,21,16,14,255,,,,,,,2.5,1.4,2.0*2A
$GPVTG,103.2,T,,M,2.3,N,4.3,K*66
$GPGSV,3,1,12,01,48,272,,03,34,198,34,31,50,074,30,13,06,323,*70
$GPGSV,3,2,12,06,49,181,35,21,07,092,21,16,66,317,28,29,13,039,15*7D
$GPGSV,3,3,12,23,32,312,14,14,13,154,33,32,16,236,23,20,11,254,19*71
$GPGGA,004321.0,3109.560849,N,12122.625657,E,1,07,2.0,17.0,M,,,,*32
$GPRMC,004321.0,A,3109.560849,N,12122.625657,E,2.3,106.3,260910,,,A*69
$GPGSA,A,3,03,31,06,16,14,255,255,,,,,,,3.6,2.0,3.0*1F
$GPVTG,106.3,T,,M,2.3,N,4.3,K*62
$GPGSV,3,1,12,01,48,272,,03,34,198,29,31,50,074,29,13,06,323,*74
$GPGSV,3,2,12,06,49,181,29,21,07,092,21,16,66,317,29,29,13,039,15*71
$GPGSV,3,3,12,23,32,312,14,14,13,154,29,32,16,236,23,20,11,254,19*7A
$GPGGA,004322.0,3109.560705,N,12122.626411,E,1,07,2.0,17.5,M,,,,*30
$GPRMC,004322.0,A,3109.560705,N,12122.626411,E,2.1,100.5,260910,,,A*6C
$GPGSA,A,3,03,31,06,16,14,255,255,,,,,,,3.7,2.0,3.0*1E
$GPVTG,100.5,T,,M,2.1,N,3.9,K*6D
$GPGSV,3,1,12,01,48,272,,03,34,198,23,31,50,074,32,13,06,323,*74
$GPGSV,3,2,12,06,49,181,27,21,07,092,21,16,66,317,29,29,13,039,15*7F
$GPGSV,3,3,12,23,32,312,,14,13,154,29,32,16,236,22,20,11,254,19*7E
$GPGGA,004323.0,3109.560733,N,12122.626984,E,1,07,1.7,17.5,M,,,,*31
$GPRMC,004323.0,A,3109.560733,N,12122.626984,E,1.6,99.5,260910,,,A*5C
$GPGSA,A,3,03,31,06,16,14,32,255,,,,,,,3.2,1.7,2.7*2A
$GPVTG,99.5,T,,M,1.6,N,3.0,K*51
$GPGSV,3,1,12,01,48,272,,03,34,198,25,31,50,074,32,13,06,323,*72
$GPGSV,3,2,12,06,49,181,27,21,07,092,20,16,66,317,29,29,13,039,15*7E
$GPGSV,3,3,12,23,32,312,,14,13,154,30,32,16,236,26,20,11,254,19*72
$GPGGA,004324.0,3109.560698,N,12122.627457,E,1,07,1.5,18.0,M,,,,*3C
$GPRMC,004324.0,A,3109.560698,N,12122.627457,E,1.0,98.6,260910,,,A*5D
$GPGSA,A,3,03,31,06,21,16,14,32,,,,,,,2.7,1.5,2.2*18
$GPVTG,98.6,T,,M,1.0,N,1.8,K*5F
$GPGSV,3,1,12,01,48,272,,03,34,198,20,31,50,074,31,13,06,323,*74
$GPGSV,3,2,12,06,49,181,29,21,07,092,20,16,66,317,32,29,13,039,15*7A
$GPGSV,3,3,12,23,32,312,,14,13,154,32,32,16,236,25,20,11,254,19*73
$GPGGA,004325.0,3109.560678,N,12122.627859,E,1,07,1.4,18.0,M,,,,*30
$GPRMC,004325.0,A,3109.560678,N,12122.627859,E,1.0,100.0,260910,,,A*66
$GPGSA,A,3,03,31,06,16,14,32,255,,,,,,,2.6,1.4,2.2*29
$GPVTG,100.0,T,,M,1.0,N,1.9,K*68
$GPGSV,3,1,12,01,48,272,,03,34,198,28,31,50,074,33,13,06,323,*7E
$GPGSV,3,2,12,06,49,181,31,21,07,092,20,16,66,317,33,29,13,039,15*72
$GPGSV,3,3,12,23,32,312,,14,13,154,31,32,16,236,28,20,11,254,19*7D
$GPGGA,004326.0,3109.560439,N,12122.628498,E,1,07,1.4,18.5,M,,,,*3F
$GPRMC,004326.0,A,3109.560439,N,12122.628498,E,1.0,98.6,260910,,,A*5A
$GPGSA,A,3,03,31,06,16,14,32,255,,,,,,,2.6,1.4,2.2*29
$GPVTG,98.6,T,,M,1.0,N,1.8,K*5F
$GPGSV,3,1,12,01,48,272,,03,34,198,30,31,50,074,35,13,06,323,*71
$GPGSV,3,2,12,06,49,181,36,21,07,092,20,16,66,317,30,29,13,039,*72
$GPGSV,3,3,12,23,32,312,,14,13,154,27,32,16,236,26,20,11,254,19*74
$GPGGA,004327.0,3109.560311,N,12122.628926,E,1,07,1.5,19.5,M,,,,*3B
$GPRMC,004327.0,A,3109.560311,N,12122.628926,E,,,260910,,,A*68
$GPGSA,A,3,03,31,06,16,14,32,255,,,,,,,3.0,1.5,2.6*2B
$GPVTG,,T,,M,0.0,N,0.0,K*4E
$GPGSV,3,1,12,01,48,272,,03,34,198,24,31,50,074,36,13,06,323,*77
$GPGSV,3,2,12,06,49,181,37,21,07,092,21,16,66,317,27,29,12,039,*75
$GPGSV,3,3,12,23,32,312,,14,13,154,23,32,16,236,25,20,11,254,19*73
$GPGGA,004328.0,3109.560235,N,12122.629197,E,1,07,1.3,20.0,M,,,,*39
$GPRMC,004328.0,A,3109.560235,N,12122.629197,E,,,260910,,,A*63
$GPGSA,A,3,03,31,06,21,16,14,32,,,,,,,2.4,1.3,2.0*1F
$GPVTG,,T,,M,0.0,N,0.0,K*4E
$GPGSV,3,1,12,01,48,272,,03,34,198,25,31,50,074,33,13,06,323,*73
$GPGSV,3,2,12,06,49,181,34,21,07,092,22,16,66,317,30,29,12,039,*73
$GPGSV,3,3,12,23,32,312,,14,13,154,29,32,16,236,22,20,11,254,*76
$GPGGA,004329.0,3109.560250,N,12122.629278,E,1,07,1.4,20.0,M,,,,*3E
$GPRMC,004329.0,A,3109.560250,N,12122.629278,E,,,260910,,,A*63
$GPGSA,A,3,03,31,06,21,16,14,32,,,,,,,2.7,1.4,2.3*18
$GPVTG,,T,,M,0.0,N,0.0,K*4E
$GPGSV,3,1,12,01,48,272,,03,34,198,30,31,50,074,25,13,06,323,*70
$GPGSV,3,2,12,06,49,181,30,21,08,092,22,16,66,317,29,29,12,039,*70
$GPGSV,3,3,12,23,32,312,,14,13,154,29,32,16,236,25,20,11,254,*71
$GPGGA,004330.0,3109.560225,N,12122.629308,E,1,07,1.3,20.5,M,,,,*30
$GPRMC,004330.0,A,3109.560225,N,12122.629308,E,,,260910,,,A*6F
$GPGSA,A,3,03,31,06,16,14,32,255,,,,,,,2.3,1.3,1.8*22
$GPVTG,,T,,M,0.0,N,0.0,K*4E
$GPGSV,3,1,12,01,48,272,,03,34,198,24,31,50,074,27,13,06,323,*77
$GPGSV,3,2,12,06,49,181,29,21,08,092,22,16,66,317,31,29,12,039,*71
$GPGSV,3,3,12,23,32,312,,14,13,154,29,32,16,236,25,20,11,254,*71
$GPGGA,004331.0,3109.560129,N,12122.629393,E,1,07,1.3,20.5,M,,,,*3C
$GPRMC,004331.0,A,3109.560129,N,12122.629393,E,,,260910,,,A*63
$GPGSA,A,3,03,31,06,16,14,255,255,,,,,,,2.3,1.3,1.9*10
$GPVTG,,T,,M,0.0,N,0.0,K*4E
$GPGSV,3,1,12,01,48,272,,03,34,198,32,31,50,074,25,13,06,323,*72
$GPGSV,3,2,12,06,49,181,34,21,08,092,22,16,66,317,29,29,12,039,*74
$GPGSV,3,3,12,23,32,312,,14,13,154,25,32,16,236,25,20,11,254,*7D
$GPGGA,004332.0,3109.560004,N,12122.629630,E,1,07,1.6,21.0,M,,,,*3C
$GPRMC,004332.0,A,3109.560004,N,12122.629630,E,,,260910,,,A*62
$GPGSA,A,3,03,31,06,16,14,32,255,,,,,,,2.9,1.6,2.4*22
$GPVTG,,T,,M,0.0,N,0.0,K*4E
$GPGSV,3,1,12,01,48,272,,03,34,198,24,31,50,074,26,13,06,323,*76
$GPGSV,3,2,12,06,49,181,33,21,08,092,21,16,66,317,29,29,12,039,*70
$GPGSV,3,3,12,23,32,312,,14,13,154,27,32,16,236,26,20,11,254,*7C
$GPGGA,004333.0,3109.559938,N,12122.629861,E,1,07,1.3,21.5,M,,,,*3B
$GPRMC,004333.0,A,3109.559938,N,12122.629861,E,,,260910,,,A*65
$GPGSA,A,3,03,31,06,21,16,14,32,,,,,,,2.2,1.3,1.7*1D
$GPVTG,,T,,M,0.0,N,0.0,K*4E
$GPGSV,3,1,12,01,48,272,,03,34,198,30,31,50,074,28,13,06,323,*7D
$GPGSV,3,2,12,06,49,181,37,21,08,092,21,16,66,317,29,29,12,039,*74
$GPGSV,3,3,12,23,32,312,20,14,13,154,21,32,16,236,21,20,11,254,*7F
$GPGGA,004334.0,3109.559971,N,12122.630077,E,1,07,1.3,21.5,M,,,,*36
$GPRMC,004334.0,A,3109.559971,N,12122.630077,E,,,260910,,,A*68
$GPGSA,A,3,03,31,06,14,32,255,255,,,,,,,2.5,1.3,2.1*1B
$GPVTG,,T,,M,0.0,N,0.0,K*4E
$GPGSV,3,1,12,01,48,272,,03,34,198,26,31,50,074,25,13,06,323,*77
$GPGSV,3,2,12,06,49,181,38,21,08,092,21,16,66,317,25,29,12,039,*77
$GPGSV,3,3,12,23,32,312,16,14,12,154,24,32,16,236,23,20,11,254,*7C
$GPGGA,004335.0,3109.559908,N,12122.630258,E,1,07,1.5,22.0,M,,,,*36
$GPRMC,004335.0,A,3109.559908,N,12122.630258,E,,,260910,,,A*68
$GPGSA,A,3,03,31,06,16,14,32,255,,,,,,,2.5,1.5,2.0*29
$GPVTG,,T,,M,0.0,N,0.0,K*4E
$GPGSV,3,1,12,01,48,272,,03,34,198,28,31,50,074,26,13,06,323,*7A
$GPGSV,3,2,12,06,49,181,37,21,08,092,23,16,66,317,25,29,12,039,*7A
$GPGSV,3,3,12,23,32,312,16,14,12,154,29,32,16,236,23,20,11,254,*71
$GPGGA,004336.0,3109.559853,N,12122.630314,E,1,07,1.6,22.5,M,,,,*35
$GPRMC,004336.0,A,3109.559853,N,12122.630314,E,,,260910,,,A*6D
$GPGSA,A,3,03,31,06,21,14,255,255,,,,,,,2.6,1.6,2.0*1E
$GPVTG,,T,,M,0.0,N,0.0,K*4E
$GPGSV,3,1,12,01,48,272,,03,34,198,22,31,50,074,29,13,06,323,*7F
$GPGSV,3,2,12,06,49,181,35,21,08,092,23,16,66,317,25,29,12,039,*78
$GPGSV,3,3,12,23,32,312,16,14,12,154,29,32,16,236,23,20,11,254,*71
$GPGGA,004337.0,3109.559737,N,12122.630379,E,1,07,1.6,23.0,M,,,,*36
$GPRMC,004337.0,A,3109.559737,N,12122.630379,E,,,260910,,,A*6A
$GPGSA,A,3,03,31,06,14,255,255,255,,,,,,,2.6,1.6,2.0*2F
$GPVTG,,T,,M,0.0,N,0.0,K*4E
$GPGSV,3,1,12,01,48,272,,03,34,198,23,31,50,074,27,13,06,323,*70
$GPGSV,3,2,12,06,49,181,27,21,08,092,23,16,66,317,23,29,12,039,15*79
$GPGSV,3,3,12,23,32,312,16,14,12,154,27,32,16,236,21,20,11,254,*7D
$GPGGA,004338.0,3109.559891,N,12122.630263,E,1,07,1.4,22.5,M,,,,*36
$GPRMC,004338.0,A,3109.559891,N,12122.630263,E,,,260910,,,A*6C
$GPGSA,A,3,03,31,06,16,14,32,255,,,,,,,2.3,1.4,1.7*2A
$GPVTG,,T,,M,0.0,N,0.0,K*4E
$GPGSV,3,1,12,01,48,272,,03,34,198,22,31,50,074,23,13,06,323,*75
$GPGSV,3,2,12,06,49,181,22,21,08,092,23,16,66,317,22,29,12,039,15*7D
$GPGSV,3,3,12,23,32,312,16,14,12,154,24,32,16,236,22,20,11,254,*7D
$GPGGA,004339.0,3109.559682,N,12122.630620,E,1,07,1.6,23.5,M,,,,*3B
$GPRMC,004339.0,A,3109.559682,N,12122.630620,E,,,260910,,,A*62
$GPGSA,A,3,03,31,06,16,14,32,255,,,,,,,3.0,1.6,2.5*2B
$GPVTG,,T,,M,0.0,N,0.0,K*4E
$GPGSV,3,1,12,01,48,272,,03,34,198,25,31,50,074,29,13,06,323,*78
$GPGSV,3,2,12,06,49,181,24,21,08,092,24,16,66,317,20,29,12,039,15*7E
$GPGSV,3,3,12,23,32,312,16,14,12,154,25,32,16,236,23,20,11,254,*7D
$GPGGA,004340.0,3109.559332,N,12122.631088,E,1,07,1.4,24.0,M,,,,*3E
$GPRMC,004340.0,A,3109.559332,N,12122.631088,E,1.3,99.2,260910,,,A*57
$GPGSA,A,3,03,31,06,21,16,14,32,,,,,,,2.1,1.4,1.6*18
$GPVTG,99.2,T,,M,1.3,N,2.4,K*56
$GPGSV,3,1,12,01,48,272,,03,34,198,27,31,50,074,32,13,06,323,*70
$GPGSV,3,2,12,06,49,181,24,21,08,092,21,16,66,317,20,29,12,039,14*7A
$GPGSV,3,3,12,23,32,312,16,14,12,154,25,32,16,236,27,20,11,254,*79
$GPGGA,004341.0,3109.558500,N,12122.631993,E,1,07,1.3,26.0,M,,,,*3F
$GPRMC,004341.0,A,3109.558500,N,12122.631993,E,2.0,153.1,260910,,,A*67
$GPGSA,A,3,03,31,06,21,32,255,255,,,,,,,2.2,1.3,1.7*1F
$GPVTG,153.1,T,,M,2.0,N,3.8,K*6F
$GPGSV,3,1,12,01,48,272,,03,34,198,28,31,50,074,32,13,06,323,*7F
$GPGSV,3,2,12,06,49,181,29,21,08,091,25,16,66,317,22,29,12,039,14*72
$GPGSV,3,3,12,23,32,312,16,14,12,154,23,32,16,236,25,20,11,254,25*7A
$GPGGA,004342.0,3109.557459,N,12122.632763,E,1,07,1.4,27.5,M,,,,*3F
$GPRMC,004342.0,A,3109.557459,N,12122.632763,E,3.2,159.1,260910,,,A*6D
$GPGSA,A,3,03,31,06,21,16,14,32,,,,,,,2.2,1.4,1.7*1A
$GPVTG,159.1,T,,M,3.2,N,6.0,K*6B
$GPGSV,3,1,12,01,48,272,,03,34,198,36,31,50,074,34,13,06,323,*76
$GPGSV,3,2,12,06,49,181,35,21,08,091,27,16,66,317,27,29,12,039,14*78
$GPGSV,3,3,12,23,32,312,16,14,12,154,33,32,16,236,21,20,11,254,23*79
$GPGGA,004343.0,3109.556368,N,12122.633286,E,1,08,1.4,27.5,M,,,,*3A
$GPRMC,004343.0,A,3109.556368,N,12122.633286,E,3.2,162.1,260910,,,A*6F
$GPGSA,A,3,03,31,06,21,16,14,32,20,,,,,,2.4,1.4,1.9*10
$GPVTG,162.1,T,,M,3.2,N,5.9,K*69
$GPGSV,3,1,12,01,48,272,,03,34,198,27,31,50,074,28,13,06,323,*7B
$GPGSV,3,2,12,06,49,181,25,21,08,091,27,16,66,317,22,29,12,039,14*7C
$GPGSV,3,3,12,23,32,312,16,14,12,154,25,32,16,236,23,20,11,254,22*7D
$GPGGA,004344.0,3109.555229,N,12122.634065,E,1,08,1.2,29.0,M,,,,*3F
$GPRMC,004344.0,A,3109.555229,N,12122.634065,E,3.6,156.8,260910,,,A*6D
$GPGSA,A,3,03,31,06,16,14,32,20,255,,,,,,1.9,1.2,1.5*25
$GPVTG,156.8,T,,M,3.6,N,6.7,K*6E
$GPGSV,3,1,12,01,48,272,,03,34,198,27,31,50,074,33,13,06,323,*71
$GPGSV,3,2,12,06,49,181,25,21,08,091,23,16,66,317,23,29,12,039,14*79
$GPGSV,3,3,12,23,32,312,16,14,12,154,27,32,16,236,22,20,11,254,20*7C
$GPGGA,004345.0,3109.554308,N,12122.634639,E,1,08,1.2,30.0,M,,,,*3A
$GPRMC,004345.0,A,3109.554308,N,12122.634639,E,3.3,154.8,260910,,,A*67
$GPGSA,A,3,03,31,06,21,16,14,32,20,,,,,,2.0,1.2,1.6*1D
$GPVTG,154.8,T,,M,3.3,N,6.2,K*6C
$GPGSV,3,1,12,01,48,272,,03,34,198,24,31,50,074,36,13,06,323,*77
$GPGSV,3,2,12,06,49,181,25,21,08,091,27,16,66,317,22,29,12,039,14*7C
$GPGSV,3,3,12,23,32,312,16,14,12,154,25,32,16,236,22,20,11,254,23*7D
$GPGGA,004346.0,3109.553564,N,12122.635323,E,1,08,1.2,30.5,M,,,,*38
$GPRMC,004346.0,A,3109.553564,N,12122.635323,E,3.3,163.2,260910,,,A*6E
$GPGSA,A,3,03,31,06,21,16,14,20,255,,,,,,1.9,1.2,1.5*27
$GPVTG,163.2,T,,M,3.3,N,6.1,K*61
$GPGSV,3,1,12,01,48,272,,03,34,198,24,31,50,074,38,13,06,323,*79
$GPGSV,3,2,12,06,49,181,23,21,08,091,32,16,66,317,23,29,12,039,14*7F
$GPGSV,3,3,12,23,32,312,16,14,12,154,25,32,16,236,22,20,11,254,25*7B
$GPGGA,004347.0,3109.552820,N,12122.636117,E,1,08,1.3,30.5,M,,,,*32
$GPRMC,004347.0,A,3109.552820,N,12122.636117,E,3.0,162.5,260910,,,A*60
$GPGSA,A,3,03,31,06,21,16,14,20,255,,,,,,1.9,1.3,1.5*26
$GPVTG,162.5,T,,M,3.0,N,5.5,K*63
$GPGSV,3,1,12,01,48,272,,03,34,198,25,31,50,074,38,13,06,323,*78
$GPGSV,3,2,12,06,49,181,24,21,08,091,34,16,66,317,22,29,12,039,14*7F
$GPGSV,3,3,12,23,32,312,16,14,12,154,25,32,16,236,25,20,11,254,25*7C
$GPGGA,004348.0,3109.552073,N,12122.637118,E,1,08,1.3,30.0,M,,,,*38
$GPRMC,004348.0,A,3109.552073,N,12122.637118,E,3.0,155.5,260910,,,A*6B
$GPGSA,A,3,03,31,06,21,16,14,32,20,,,,,,2.0,1.3,1.4*1E
$GPVTG,155.5,T,,M,3.0,N,5.6,K*64
$GPGSV,3,1,12,01,48,272,,03,34,198,27,31,50,074,37,13,06,323,*75
$GPGSV,3,2,12,06,49,181,26,21,08,091,34,16,66,317,22,29,12,039,14*7D
$GPGSV,3,3,12,23,32,312,16,14,12,154,23,32,16,236,23,20,11,254,26*7F
$GPGGA,004349.0,3109.551349,N,12122.638119,E,1,08,1.4,30.5,M,,,,*3C
$GPRMC,004349.0,A,3109.551349,N,12122.638119,E,2.6,154.6,260910,,,A*68
$GPGSA,A,3,03,31,06,21,16,14,32,20,,,,,,2.0,1.4,1.3*1E
$GPVTG,154.6,T,,M,2.6,N,4.9,K*6F
$GPGSV,3,1,12,01,48,272,,03,34,198,28,31,50,074,37,13,07,323,*7B
$GPGSV,3,2,12,06,49,181,27,21,08,091,34,16,66,317,22,29,12,039,14*7C
$GPGSV,3,3,12,23,32,312,16,14,12,154,23,32,16,236,24,20,11,254,24*7A
$GPGGA,004350.0,3109.550468,N,12122.638979,E,1,08,1.5,31.0,M,,,,*3A
$GPRMC,004350.0,A,3109.550468,N,12122.638979,E,3.1,159.1,260910,,,A*67
$GPGSA,A,3,03,31,06,21,16,14,32,20,,,,,,2.0,1.5,1.3*1F
$GPVTG,159.1,T,,M,3.1,N,5.7,K*6C
$GPGSV,3,1,12,01,48,272,,03,34,198,27,31,50,074,36,13,07,323,*75
$GPGSV,3,2,12,06,49,181,26,21,08,091,32,16,66,317,23,29,12,039,14*7A
$GPGSV,3,3,12,23,32,312,16,14,12,154,21,32,16,236,27,20,11,254,25*7A
$GPGGA,004351.0,3109.549018,N,12122.640518,E,1,08,1.5,33.5,M,,,,*33
$GPRMC,004351.0,A,3109.549018,N,12122.640518,E,4.3,157.8,260910,,,A*6B
$GPGSA,A,3,03,31,06,21,16,14,32,20,,,,,,2.0,1.5,1.3*1F
$GPVTG,157.8,T,,M,4.3,N,8.0,K*64
$GPGSV,3,1,12,01,48,272,,03,34,198,28,31,50,074,35,13,07,323,*79
$GPGSV,3,2,12,06,49,181,28,21,08,091,30,16,66,317,20,29,12,039,14*75
$GPGSV,3,3,12,23,32,312,16,14,12,154,20,32,16,236,24,20,11,254,22*7F
$GPGGA,004352.0,3109.547853,N,12122.641373,E,1,08,1.6,34.5,M,,,,*37
$GPRMC,004352.0,A,3109.547853,N,12122.641373,E,4.0,154.4,260910,,,A*67
$GPGSA,A,3,03,31,06,21,16,14,32,20,,,,,,2.1,1.6,1.3*1D
$GPVTG,154.4,T,,M,4.0,N,7.5,K*62
$GPGSV,3,1,12,01,48,272,,03,34,198,27,31,50,074,36,13,07,323,*75
$GPGSV,3,2,12,06,49,181,26,21,08,091,33,16,66,317,20,29,12,039,14*78
$GPGSV,3,3,12,23,32,312,16,14,12,154,21,32,16,236,24,20,11,254,21*7D
$GPGGA,004353.0,3109.546842,N,12122.642394,E,1,08,1.7,35.0,M,,,,*38
$GPRMC,004353.0,A,3109.546842,N,12122.642394,E,4.0,152.7,260910,,,A*68
$GPGSA,A,3,03,31,06,21,16,14,32,20,,,,,,2.2,1.7,1.3*1F
$GPVTG,152.7,T,,M,4.0,N,7.4,K*66
$GPGSV,3,1,12,01,48,272,,03,34,198,26,31,50,074,33,13,07,323,*71
$GPGSV,3,2,12,06,49,181,26,21,08,091,36,16,66,317,23,29,12,039,14*7E
$GPGSV,3,3,12,23,32,312,16,14,12,154,22,32,16,236,22,20,11,254,23*7A
$GPGGA,004354.0,3109.546086,N,12122.643284,E,1,08,1.7,34.5,M,,,,*3A
$GPRMC,004354.0,A,3109.546086,N,12122.643284,E,3.4,153.7,260910,,,A*6C
$GPGSA,A,3,03,31,06,21,16,14,32,20,,,,,,2.1,1.7,1.3*1C
$GPVTG,153.7,T,,M,3.4,N,6.3,K*62
$GPGSV,3,1,12,01,48,272,,03,34,198,24,31,50,074,36,13,07,323,*76
$GPGSV,3,2,12,06,49,181,27,21,08,091,30,16,66,317,20,29,12,039,14*7A
$GPGSV,3,3,12,23,32,312,16,14,12,154,21,32,16,236,22,20,11,254,22*78
$GPGGA,004355.0,3109.545163,N,12122.643953,E,1,08,1.7,35.0,M,,,,*37
$GPRMC,004355.0,A,3109.545163,N,12122.643953,E,3.3,156.0,260910,,,A*60
$GPGSA,A,3,03,31,06,21,16,14,32,20,,,,,,2.1,1.7,1.2*1D
$GPVTG,156.0,T,,M,3.3,N,6.1,K*65
$GPGSV,3,1,12,01,48,272,,03,34,198,27,31,50,074,34,13,07,323,*77
$GPGSV,3,2,12,06,49,181,28,21,08,091,34,16,66,317,21,29,12,039,14*70
$GPGSV,3,3,12,23,32,312,,14,12,154,21,32,16,236,22,20,11,254,22*7F
$GPGGA,004356.0,3109.544630,N,12122.644300,E,1,08,1.7,35.0,M,,,,*3F
$GPRMC,004356.0,A,3109.544630,N,12122.644300,E,2.5,157.4,260910,,,A*6A
$GPGSA,A,3,03,31,06,21,16,14,255,255,,,,,,2.2,1.7,1.3*1C
$GPVTG,157.4,T,,M,2.5,N,4.6,K*62
$GPGSV,3,1,12,01,48,272,,03,34,198,27,31,50,074,34,13,07,323,*77
$GPGSV,3,2,12,06,49,181,29,21,08,091,36,16,66,317,23,29,12,039,14*71
$GPGSV,3,3,12,23,32,312,,14,12,154,24,32,16,236,22,20,11,254,22*7A
$GPGGA,004357.0,3109.544242,N,12122.644712,E,1,08,1.8,34.5,M,,,,*33
$GPRMC,004357.0,A,3109.544242,N,12122.644712,E,1.8,152.6,260910,,,A*64
$GPGSA,A,3,03,31,06,21,16,14,32,255,,,,,,2.2,1.8,1.3*20
$GPVTG,152.6,T,,M,1.8,N,3.3,K*69
$GPGSV,3,1,12,01,48,272,,03,34,198,26,31,50,074,35,13,07,323,*77
$GPGSV,3,2,12,06,49,181,28,21,08,091,33,16,66,317,23,29,12,039,14*75
$GPGSV,3,3,12,23,32,312,,14,12,154,22,32,16,236,22,20,11,254,22*7C
$GPGGA,004358.0,3109.543838,N,12122.645034,E,1,08,2.4,34.5,M,,,,*31
$GPRMC,004358.0,A,3109.543838,N,12122.645034,E,1.6,165.7,260910,,,A*62
$GPGSA,A,3,03,31,06,21,16,14,32,255,,,,,,3.0,2.4,1.8*27
$GPVTG,165.7,T,,M,1.6,N,2.9,K*69
$GPGSV,3,1,12,01,48,272,,03,34,198,25,31,50,074,33,13,07,323,*72
$GPGSV,3,2,12,06,49,181,26,21,08,091,33,16,66,317,21,29,12,039,14*79
$GPGSV,3,3,12,23,32,312,,14,12,154,21,32,16,236,20,20,11,254,25*7A
$GPGGA,004359.0,3109.543010,N,12122.645859,E,1,08,1.6,35.0,M,,,,*34
$GPRMC,004359.0,A,3109.543010,N,12122.645859,E,2.7,156.6,260910,,,A*61
$GPGSA,A,3,03,31,06,21,16,14,32,20,,,,,,1.9,1.6,1.1*14
$GPVTG,156.6,T,,M,2.7,N,5.0,K*64
$GPGSV,3,1,12,01,48,272,,03,34,198,28,31,50,074,33,13,07,323,*7F
$GPGSV,3,2,12,06,49,181,27,21,08,091,32,16,66,317,22,29,12,039,14*7A
$GPGSV,3,3,12,23,32,312,,14,12,154,23,32,16,236,20,20,11,254,20*7D
$GPGGA,004400.0,3109.542626,N,12122.646110,E,1,08,1.7,35.5,M,,,,*3E
$GPRMC,004400.0,A,3109.542626,N,12122.646110,E,1.5,171.1,260910,,,A*6C
$GPGSA,A,3,03,31,06,21,16,14,32,20,,,,,,2.1,1.7,1.3*1C
$GPVTG,171.1,T,,M,1.5,N,2.8,K*68
$GPGSV,3,1,12,01,48,272,,03,34,198,26,31,50,074,33,13,07,323,*71
$GPGSV,3,2,12,06,49,181,28,21,08,091,34,16,66,317,22,29,12,039,14*73
$GPGSV,3,3,12,23,32,312,,14,12,154,23,32,16,236,20,20,11,254,25*78
$GPGGA,004401.0,3109.542201,N,12122.646759,E,1,08,1.7,35.5,M,,,,*35
$GPRMC,004401.0,A,3109.542201,N,12122.646759,E,1.3,170.8,260910,,,A*69
$GPGSA,A,3,03,31,06,21,16,14,32,20,,,,,,2.1,1.7,1.2*1D
$GPVTG,170.8,T,,M,1.3,N,2.4,K*6A
$GPGSV,3,1,12,01,48,272,,03,34,198,27,31,50,074,29,13,07,323,*7B
$GPGSV,3,2,12,06,49,181,27,21,08,091,30,16,66,317,22,29,12,039,*7D
$GPGSV,3,3,12,23,32,312,,14,12,154,21,32,16,236,20,20,11,254,24*7B
$GPGGA,004402.0,3109.541740,N,12122.647322,E,1,08,1.3,36.5,M,,,,*3B
$GPRMC,004402.0,A,3109.541740,N,12122.647322,E,1.2,171.5,260910,,,A*6D
$GPGSA,A,3,03,31,06,21,16,14,20,255,,,,,,1.8,1.3,1.2*20
$GPVTG,171.5,T,,M,1.2,N,2.2,K*61
$GPGSV,3,1,12,01,48,272,,03,34,198,25,31,50,074,36,13,07,323,*77
$GPGSV,3,2,12,06,49,181,30,21,08,091,29,16,66,317,24,29,12,039,*75
$GPGSV,3,3,12,23,32,312,,14,12,154,21,32,16,236,20,20,11,253,20*78
$GPGGA,004403.0,3109.541439,N,12122.647699,E,1,08,1.4,37.5,M,,,,*34
$GPRMC,004403.0,A,3109.541439,N,12122.647699,E,,,260910,,,A*65
$GPGSA,A,3,03,31,06,21,16,14,32,20,,,,,,1.9,1.4,1.3*14
$GPVTG,,T,,M,0.0,N,0.0,K*4E
$GPGSV,3,1,12,01,48,272,,03,34,198,25,31,50,074,31,13,07,323,*70
$GPGSV,3,2,12,06,49,181,27,21,08,091,29,16,66,317,32,29,12,039,*74
$GPGSV,3,3,12,23,32,312,,14,12,154,21,32,16,236,20,20,11,253,20*78
$GPGGA,004404.0,3109.541582,N,12122.647679,E,1,08,1.4,37.5,M,,,,*3C
$GPRMC,004404.0,A,3109.541582,N,12122.647679,E,,,260910,,,A*6D
$GPGSA,A,3,03,31,06,16,14,255,255,255,,,,,,1.8,1.4,1.2*26
$GPVTG,,T,,M,0.0,N,0.0,K*4E
$GPGSV,3,1,12,01,48,272,,03,34,198,28,31,50,074,33,13,07,323,*7F
$GPGSV,3,2,12,06,49,181,23,21,08,091,20,16,66,317,35,29,12,039,*7E
$GPGSV,3,3,12,23,32,312,,14,12,154,22,32,16,236,23,20,11,253,23*7B
$GPGGA,004405.0,3109.541640,N,12122.647735,E,1,08,1.3,38.5,M,,,,*31
$GPRMC,004405.0,A,3109.541640,N,12122.647735,E,,,260910,,,A*68
$GPGSA,A,3,03,31,06,21,16,14,32,20,,,,,,2.3,1.3,1.8*11
$GPVTG,,T,,M,0.0,N,0.0,K*4E
$GPGSV,3,1,12,01,48,272,,03,34,198,26,31,50,074,33,13,07,323,*71
$GPGSV,3,2,12,06,49,181,25,21,08,091,20,16,66,317,35,29,12,039,*78
$GPGSV,3,3,12,23,32,312,,14,12,154,23,32,16,236,24,20,11,253,23*7D
$GPGGA,004406.0,3109.541635,N,12122.647890,E,1,08,1.3,39.0,M,,,,*34
$GPRMC,004406.0,A,3109.541635,N,12122.647890,E,,,260910,,,A*69
$GPGSA,A,3,03,31,06,16,14,32,20,255,,,,,,2.4,1.3,1.9*26
$GPVTG,,T,,M,0.0,N,0.0,K*4E
$GPGSV,3,1,12,01,48,272,,03,34,198,25,31,50,074,33,13,07,323,*72
$GPGSV,3,2,12,06,49,181,20,21,08,091,20,16,66,317,35,29,12,039,*7D
$GPGSV,3,3,12,23,32,312,,14,12,154,23,32,16,236,26,20,11,253,23*7F
$GPGGA,004407.0,3109.541715,N,12122.648046,E,1,08,1.5,39.5,M,,,,*39
$GPRMC,004407.0,A,3109.541715,N,12122.648046,E,,,260910,,,A*67
$GPGSA,A,3,03,31,06,16,14,32,255,255,,,,,,2.6,1.5,2.1*19
$GPVTG,,T,,M,0.0,N,0.0,K*4E
$GPGSV,3,1,12,01,48,272,,03,34,198,23,31,50,074,33,13,07,323,*74
$GPGSV,3,2,12,06,49,181,23,21,08,091,24,16,66,317,34,29,12,039,*7B
$GPGSV,3,3,12,23,32,312,,14,12,154,24,32,16,236,26,20,11,253,21*7A
$GPGGA,004408.0,3109.541982,N,12122.647956,E,1,08,1.4,40.0,M,,,,*3B
$GPRMC,004408.0,A,3109.541982,N,12122.647956,E,,,260910,,,A*6F
$GPGSA,A,3,03,31,06,21,16,14,20,255,,,,,,2.4,1.4,1.9*23
$GPVTG,,T,,M,0.0,N,0.0,K*4E
$GPGSV,3,1,12,01,48,272,,03,34,198,26,31,50,074,32,13,07,323,*70
$GPGSV,3,2,12,06,49,181,30,21,08,091,21,16,66,317,33,29,12,039,*7B
$GPGSV,3,3,12,23,32,312,,14,12,154,23,32,16,236,26,20,11,253,22*7E
$GPGGA,004409.0,3109.542281,N,12122.648046,E,1,08,1.4,40.0,M,,,,*36
$GPRMC,004409.0,A,3109.542281,N,12122.648046,E,,,260910,,,A*62
$GPGSA,A,3,03,31,06,21,16,14,20,255,,,,,,2.6,1.4,2.2*29
$GPVTG,,T,,M,0.0,N,0.0,K*4E
$GPGSV,3,1,12,01,48,272,,03,34,198,21,31,50,074,34,13,07,323,*71
$GPGSV,3,2,12,06,49,181,26,21,08,091,20,16,66,317,32,29,12,039,*7C
$GPGSV,3,3,12,23,32,312,,14,12,154,23,32,16,236,26,20,11,253,21*7D
$GPGGA,004410.0,3109.542613,N,12122.648061,E,1,08,1.6,40.5,M,,,,*33
$GPRMC,004410.0,A,3109.542613,N,12122.648061,E,,,260910,,,A*60
$GPGSA,A,3,03,31,06,21,16,14,20,255,,,,,,2.9,1.6,2.4*22
$GPVTG,,T,,M,0.0,N,0.0,K*4E
$GPGSV,3,1,12,01,48,272,,03,34,198,26,31,50,074,33,13,07,323,*71
$GPGSV,3,2,12,06,49,181,25,21,08,091,21,16,66,317,36,29,12,039,*7A
$GPGSV,3,3,12,23,32,312,,14,12,154,25,32,16,236,26,20,11,253,21*7B
$GPGGA,004411.0,3109.542817,N,12122.648011,E,1,08,1.6,40.5,M,,,,*3F
$GPRMC,004411.0,A,3109.542817,N,12122.648011,E,,,260910,,,A*6C
$GPGSA,A,3,03,31,06,21,16,14,255,255,,,,,,3.1,1.6,2.6*19
$GPVTG,,T,,M,0.0,N,0.0,K*4E
$GPGSV,3,1,12,01,48,272,,03,34,198,24,31,50,074,33,13,07,323,*73
$GPGSV,3,2,12,06,49,181,26,21,08,091,20,16,66,317,35,29,12,039,*7B
$GPGSV,3,3,12,23,32,312,,14,12,154,23,32,16,236,26,20,11,253,21*7D
$GPGGA,004412.0,3109.542970,N,12122.647905,E,1,08,1.6,40.5,M,,,,*3F
$GPRMC,004412.0,A,3109.542970,N,12122.647905,E,,,260910,,,A*6C
$GPGSA,A,3,03,31,06,21,16,14,255,255,,,,,,3.3,1.6,2.8*15
$GPVTG,,T,,M,0.0,N,0.0,K*4E
$GPGSV,3,1,12,01,48,272,,03,34,198,24,31,50,074,34,13,07,323,*74
$GPGSV,3,2,12,06,49,181,29,21,08,091,23,16,66,317,33,29,12,039,*71
$GPGSV,3,3,12,23,32,312,,14,12,154,22,32,16,236,26,20,11,253,21*7C
$GPGGA,004413.0,3109.542968,N,12122.647916,E,1,08,1.9,41.0,M,,,,*3E
$GPRMC,004413.0,A,3109.542968,N,12122.647916,E,,,260910,,,A*66
$GPGSA,A,3,03,31,06,21,16,14,255,255,,,,,,4.6,1.9,4.2*14
$GPVTG,,T,,M,0.0,N,0.0,K*4E
$GPGSV,3,1,12,01,48,272,,03,34,198,24,31,50,074,32,13,07,323,*72
$GPGSV,3,2,12,06,49,181,28,21,08,091,23,16,66,317,33,29,12,039,*70
$GPGSV,3,3,12,23,32,312,,14,12,154,22,32,16,236,26,20,11,253,21*7C
$GPGGA,004414.0,3109.542817,N,12122.647926,E,1,07,1.8,41.0,M,,,,*3D
$GPRMC,004414.0,A,3109.542817,N,12122.647926,E,,,260910,,,A*6B
$GPGSA,A,3,31,06,16,255,255,255,255,,,,,,,4.4,1.8,4.0*10
$GPVTG,,T,,M,0.0,N,0.0,K*4E
$GPGSV,3,1,12,01,48,272,,03,34,198,24,31,50,074,33,13,07,323,*73
$GPGSV,3,2,12,06,49,181,28,21,08,091,21,16,66,317,33,29,12,039,*72
$GPGSV,3,3,12,23,32,312,,14,12,154,21,32,16,236,19,20,11,253,22*70
$GPGGA,004415.0,3109.542731,N,12122.648117,E,1,07,1.4,41.5,M,,,,*3B
$GPRMC,004415.0,A,3109.542731,N,12122.648117,E,,,260910,,,A*64
$GPGSA,A,3,03,31,06,21,16,14,20,,,,,,,2.9,1.4,2.5*13
$GPVTG,,T,,M,0.0,N,0.0,K*4E
$GPGSV,3,1,12,01,48,272,,03,34,198,26,31,50,074,29,13,07,323,*7A
$GPGSV,3,2,12,06,49,181,28,21,08,091,21,16,66,317,34,29,12,039,*75
$GPGSV,3,3,12,23,32,312,,14,12,154,23,32,16,236,19,20,11,253,25*75
$GPGGA,004416.0,3109.542701,N,12122.648237,E,1,07,1.3,42.5,M,,,,*3E
$GPRMC,004416.0,A,3109.542701,N,12122.648237,E,,,260910,,,A*65
$GPGSA,A,3,03,31,06,16,14,20,255,,,,,,,2.6,1.3,2.2*2D
$GPVTG,,T,,M,0.0,N,0.0,K*4E
$GPGSV,3,1,12,01,48,272,,03,35,198,28,31,50,074,29,13,07,323,*75
$GPGSV,3,2,12,06,49,181,30,21,08,091,21,16,66,317,35,29,12,039,*7D
$GPGSV,3,3,12,23,32,312,,14,12,154,24,32,16,236,19,20,11,253,25*72
$GPGGA,004417.0,3109.542638,N,12122.648408,E,1,07,1.3,43.5,M,,,,*3F
$GPRMC,004417.0,A,3109.542638,N,12122.648408,E,,,260910,,,A*65
$GPGSA,A,3,03,31,06,16,14,20,255,,,,,,,2.6,1.3,2.2*2D
$GPVTG,,T,,M,0.0,N,0.0,K*4E
$GPGSV,3,1,12,01,48,272,,03,35,198,26,31,50,074,30,13,07,323,*73
$GPGSV,3,2,12,06,49,181,22,21,08,091,21,16,66,317,36,29,12,039,*7D
$GPGSV,3,3,12,23,32,312,42,14,12,154,21,32,16,236,,20,11,253,22*7E
$GPGGA,004418.0,3109.544735,N,12122.646538,E,1,08,1.6,38.5,M,,,,*30
$GPRMC,004418.0,A,3109.544735,N,12122.646538,E,,,260910,,,A*6C
$GPGSA,A,3,03,31,06,16,23,14,20,255,,,,,,2.5,1.6,1.8*23
$GPVTG,,T,,M,0.0,N,0.0,K*4E
$GPGSV,3,1,12,01,48,272,,03,35,198,23,31,50,074,31,13,07,323,*77
$GPGSV,3,2,12,06,49,181,23,21,08,091,20,16,66,317,36,29,12,039,*7D
$GPGSV,3,3,12,23,32,312,41,14,12,154,21,32,16,236,,20,11,253,20*7F
$GPGGA,004419.0,3109.545432,N,12122.645964,E,1,08,1.6,37.0,M,,,,*38
$GPRMC,004419.0,A,3109.545432,N,12122.645964,E,,,260910,,,A*6E
$GPGSA,A,3,03,31,06,21,16,23,20,255,,,,,,2.2,1.6,1.5*2F
$GPVTG,,T,,M,0.0,N,0.0,K*4E
$GPGSV,3,1,12,01,48,272,,03,35,198,26,31,50,074,30,13,07,323,*73
$GPGSV,3,2,12,06,49,181,29,21,08,091,24,16,66,317,33,29,12,039,*76
$GPGSV,3,3,12,23,32,312,38,14,12,154,25,32,16,236,,20,11,253,27*72
$GPGGA,004420.0,3109.545661,N,12122.646025,E,1,08,1.4,37.5,M,,,,*3E
$GPRMC,004420.0,A,3109.545661,N,12122.646025,E,,,260910,,,A*6F
$GPGSA,A,3,03,31,06,21,16,23,14,20,,,,,,2.2,1.4,1.6*19
$GPVTG,,T,,M,0.0,N,0.0,K*4E
$GPGSV,3,1,12,01,48,272,,03,35,198,24,31,50,074,28,13,07,323,*78
$GPGSV,3,2,12,06,49,181,27,21,08,091,23,16,66,317,34,29,12,039,*78
$GPGSV,3,3,12,23,32,312,39,14,12,154,26,32,16,236,,20,11,253,22*75
$GPGGA,004421.0,3109.546272,N,12122.645632,E,1,08,1.5,37.5,M,,,,*38
$GPRMC,004421.0,A,3109.546272,N,12122.645632,E,,,260910,,,A*68
$GPGSA,A,3,03,31,06,21,16,23,14,20,,,,,,2.2,1.5,1.6*18
$GPVTG,,T,,M,0.0,N,0.0,K*4E
$GPGSV,3,1,12,01,48,272,,03,35,198,26,31,50,074,29,13,07,323,*7B
$GPGSV,3,2,12,06,49,181,26,21,08,091,23,16,66,317,32,29,12,039,*7F
$GPGSV,3,3,12,23,32,312,39,14,12,154,26,32,16,236,,20,11,253,27*70
$GPGGA,004422.0,3109.546840,N,12122.645290,E,1,08,1.5,38.0,M,,,,*36
$GPRMC,004422.0,A,3109.546840,N,12122.645290,E,,,260910,,,A*6C
$GPGSA,A,3,03,31,06,21,16,23,14,20,,,,,,2.2,1.5,1.7*19
$GPVTG,,T,,M,0.0,N,0.0,K*4E
$GPGSV,3,1,12,01,48,272,,03,35,198,23,31,50,074,30,13,07,323,*76
$GPGSV,3,2,12,06,49,181,27,21,08,091,20,16,66,317,34,29,12,039,*7B
$GPGSV,3,3,12,23,32,312,39,14,12,154,25,32,16,236,,20,11,253,25*71
$GPGGA,004423.0,3109.547240,N,12122.645180,E,1,08,1.5,39.0,M,,,,*3F
$GPRMC,004423.0,A,3109.547240,N,12122.645180,E,,,260910,,,A*64
$GPGSA,A,3,03,31,06,21,16,23,14,20,,,,,,2.3,1.5,1.7*18
$GPVTG,,T,,M,0.0,N,0.0,K*4E
$GPGSV,3,1,12,01,48,272,,03,35,198,22,31,50,074,31,13,07,323,*76
$GPGSV,3,2,12,06,49,181,24,21,08,091,20,16,66,317,37,29,12,039,*7B
$GPGSV,3,3,12,23,32,312,42,14,12,154,22,32,16,236,,20,11,253,21*7E
$GPGGA,004424.0,3109.547697,N,12122.644913,E,1,08,1.7,38.0,M,,,,*36
$GPRMC,004424.0,A,3109.547697,N,12122.644913,E,,,260910,,,A*6E
$GPGSA,A,3,03,31,06,16,23,14,20,255,,,,,,2.5,1.7,1.8*22
$GPVTG,,T,,M,0.0,N,0.0,K*4E
$GPGSV,3,1,12,01,48,272,,03,35,198,23,31,50,074,32,13,07,323,*74
$GPGSV,3,2,12,06,49,181,20,21,08,091,20,16,66,317,36,29,12,039,*7E
$GPGSV,3,3,12,23,32,312,42,14,12,154,22,32,16,236,,20,11,253,23*7C
$GPGGA,004425.0,3109.547773,N,12122.644958,E,1,08,1.9,38.0,M,,,,*3D
$GPRMC,004425.0,A,3109.547773,N,12122.644958,E,,,260910,,,A*6B
$GPGSA,A,3,03,31,06,16,23,20,255,255,,,,,,2.6,1.9,1.8*18
$GPVTG,,T,,M,0.0,N,0.0,K*4E
$GPGSV,3,1,12,01,48,272,,03,35,198,23,31,50,074,32,13,07,323,*74
$GPGSV,3,2,12,06,49,181,20,21,08,091,20,16,66,319,37,29,12,039,*71
$GPGSV,3,3,12,23,32,312,42,14,12,154,22,32,16,236,,20,11,253,22*7D
$GPGGA,004426.0,3109.548032,N,12122.644898,E,1,08,2.2,37.0,M,,,,*39
$GPRMC,004426.0,A,3109.548032,N,12122.644898,E,,,260910,,,A*68
$GPGSA,A,3,03,31,06,16,23,20,255,255,,,,,,3.1,2.2,2.1*1C
$GPVTG,,T,,M,0.0,N,0.0,K*4E
$GPGSV,3,1,12,01,48,272,,03,35,198,23,31,50,074,32,13,07,323,*74
$GPGSV,3,2,12,06,49,181,24,21,08,091,21,16,66,319,38,29,12,039,*7B
$GPGSV,3,3,12,23,32,312,43,14,12,154,22,32,16,236,,20,11,253,23*7D
$GPGGA,004427.0,3109.548261,N,12122.644908,E,1,08,2.4,36.0,M,,,,*33
$GPRMC,004427.0,A,3109.548261,N,12122.644908,E,,,260910,,,A*65
$GPGSA,A,3,31,06,21,16,23,20,255,255,,,,,,3.3,2.4,2.1*18
$GPVTG,,T,,M,0.0,N,0.0,K*4E
$GPGSV,3,1,12,01,48,272,,03,35,198,26,31,50,074,31,13,07,323,*72
$GPGSV,3,2,12,06,49,181,22,21,08,091,22,16,66,319,35,29,12,039,*73
$GPGSV,3,3,12,23,32,312,38,14,12,154,22,32,16,236,,20,11,253,24*76
$GPGGA,004428.0,3109.548442,N,12122.644989,E,1,08,1.5,36.5,M,,,,*35
$GPRMC,004428.0,A,3109.548442,N,12122.644989,E,,,260910,,,A*64
$GPGSA,A,3,03,31,06,21,16,23,14,20,,,,,,2.2,1.5,1.6*18
$GPVTG,,T,,M,0.0,N,0.0,K*4E
$GPGSV,3,1,12,01,48,272,,03,35,198,24,31,50,074,30,13,07,323,*71
$GPGSV,3,2,12,06,49,181,30,21,08,091,21,16,66,319,34,29,12,039,*72
$GPGSV,3,3,12,23,32,312,37,14,12,154,25,32,16,236,,20,11,253,27*7D
$GPGGA,004429.0,3109.548484,N,12122.645240,E,1,08,1.4,37.0,M,,,,*34
$GPRMC,004429.0,A,3109.548484,N,12122.645240,E,,,260910,,,A*60
$GPGSA,A,3,03,31,06,21,16,23,14,20,,,,,,2.1,1.4,1.6*1A
$GPVTG,,T,,M,0.0,N,0.0,K*4E
$GPGSV,3,1,12,01,48,272,,03,35,198,28,31,50,074,31,13,07,323,*7C
$GPGSV,3,2,12,06,49,181,28,21,08,091,21,16,66,319,35,29,12,039,*7A
$GPGSV,3,3,12,23,32,312,39,14,12,154,22,32,16,236,,20,11,253,24*77
$GPGGA,004430.0,3109.548751,N,12122.645170,E,1,08,1.4,37.0,M,,,,*37
$GPRMC,004430.0,A,3109.548751,N,12122.645170,E,,,260910,,,A*63
$GPGSA,A,3,03,31,06,21,16,23,14,20,,,,,,2.2,1.4,1.6*19
$GPVTG,,T,,M,0.0,N,0.0,K*4E
$GPGSV,3,1,12,01,48,272,,03,35,198,32,31,50,074,32,13,07,323,*74
$GPGSV,3,2,12,06,49,181,30,21,08,091,20,16,66,319,36,29,12,039,*71
$GPGSV,3,3,12,23,32,312,40,14,12,154,21,32,16,236,,20,11,253,24*7A
$GPGGA,004431.0,3109.548638,N,12122.645255,E,1,08,1.4,37.5,M,,,,*39
$GPRMC,004431.0,A,3109.548638,N,12122.645255,E,,,260910,,,A*68
$GPGSA,A,3,03,31,06,21,16,23,14,20,,,,,,2.2,1.4,1.7*18
$GPVTG,,T,,M,0.0,N,0.0,K*4E
$GPGSV,3,1,12,01,48,272,,03,35,198,31,31,50,074,32,13,07,323,*77
$GPGSV,3,2,12,06,49,181,27,21,08,091,20,16,66,319,36,29,12,039,*77
$GPGSV,3,3,12,23,32,312,39,14,12,154,24,32,16,236,,20,11,253,22*77
$GPGGA,004432.0,3109.548887,N,12122.645255,E,1,08,1.4,37.5,M,,,,*30
$GPRMC,004432.0,A,3109.548887,N,12122.645255,E,,,260910,,,A*61
$GPGSA,A,3,03,31,06,16,23,14,20,255,,,,,,2.2,1.4,1.7*29
$GPVTG,,T,,M,0.0,N,0.0,K*4E
$GPGSV,3,1,12,01,48,272,,03,35,198,30,31,50,074,34,13,07,323,*70
$GPGSV,3,2,12,06,49,181,24,21,08,091,22,16,66,319,35,29,12,039,*75
$GPGSV,3,3,12,23,32,312,39,14,12,154,25,32,16,236,,20,11,253,24*70
$GPGGA,004433.0,3109.549287,N,12122.645341,E,1,08,1.3,37.5,M,,,,*39
$GPRMC,004433.0,A,3109.549287,N,12122.645341,E,,,260910,,,A*6F
$GPGSA,A,3,03,31,06,21,16,23,14,20,,,,,,2.2,1.3,1.7*1F
$GPVTG,,T,,M,0.0,N,0.0,K*4E
$GPGSV,3,1,12,01,48,272,,03,35,198,27,31,50,074,32,13,07,323,*70
$GPGSV,3,2,12,06,49,181,21,21,08,091,22,16,66,319,36,29,12,039,*73
$GPGSV,3,3,12,23,33,312,39,14,12,154,25,32,16,236,,20,11,253,22*77
$GPGGA,004434.0,3109.549571,N,12122.645315,E,1,08,1.4,37.5,M,,,,*36
$GPRMC,004434.0,A,3109.549571,N,12122.645315,E,,,260910,,,A*67
$GPGSA,A,3,03,31,06,21,16,23,14,20,,,,,,2.2,1.4,1.6*19
$GPVTG,,T,,M,0.0,N,0.0,K*4E
$GPGSV,3,1,12,01,48,272,,03,35,198,27,31,50,074,31,13,07,323,*73
$GPGSV,3,2,12,06,49,181,25,21,08,091,24,16,66,319,35,29,12,039,*72
$GPGSV,3,3,12,23,33,312,41,14,12,154,25,32,16,236,,20,11,253,22*78
$GPGGA,004435.0,3109.549546,N,12122.645230,E,1,08,1.5,38.0,M,,,,*3E
$GPRMC,004435.0,A,3109.549546,N,12122.645230,E,,,260910,,,A*64
$GPGSA,A,3,03,31,06,21,16,23,255,255,,,,,,2.2,1.5,1.6*1F
$GPVTG,,T,,M,0.0,N,0.0,K*4E
$GPGSV,3,1,12,01,48,272,,03,35,198,27,31,50,074,32,13,07,323,*70
$GPGSV,3,2,12,06,49,181,24,21,08,091,21,16,66,319,36,29,12,039,*75
$GPGSV,3,3,12,23,33,312,40,14,12,154,25,32,16,236,,20,11,253,20*7B
$GPGGA,004436.0,3109.549717,N,12122.645094,E,1,08,1.5,37.5,M,,,,*3D
$GPRMC,004436.0,A,3109.549717,N,12122.645094,E,,,260910,,,A*6D
$GPGSA,A,3,03,31,06,21,16,23,20,255,,,,,,2.2,1.5,1.7*2E
$GPVTG,,T,,M,0.0,N,0.0,K*4E
$GPGSV,3,1,12,01,48,272,,03,35,198,24,31,50,074,33,13,07,323,*72
$GPGSV,3,2,12,06,49,181,26,21,08,091,21,16,66,319,31,29,12,039,*70
$GPGSV,3,3,12,23,33,312,40,14,12,154,20,32,16,236,,20,11,253,24*7A
$GPGGA,004437.0,3109.549852,N,12122.645069,E,1,08,1.5,37.5,M,,,,*30
$GPRMC,004437.0,A,3109.549852,N,12122.645069,E,,,260910,,,A*60
$GPGSA,A,3,03,31,06,16,23,14,20,255,,,,,,2.6,1.5,2.1*29
$GPVTG,,T,,M,0.0,N,0.0,K*4E
$GPGSV,3,1,12,01,48,272,,03,35,198,24,31,50,075,34,13,07,323,*74
$GPGSV,3,2,12,06,49,181,28,21,08,091,21,16,66,319,33,29,12,039,*7C
$GPGSV,3,3,12,23,33,312,37,14,12,154,23,32,16,236,,20,11,253,21*7C
$GPGGA,004438.0,3109.549883,N,12122.645009,E,1,08,1.4,37.5,M,,,,*34
$GPRMC,004438.0,A,3109.549883,N,12122.645009,E,,,260910,,,A*65
$GPGSA,A,3,03,31,06,16,23,14,20,255,,,,,,2.4,1.4,1.9*21
$GPVTG,,T,,M,0.0,N,0.0,K*4E
$GPGSV,3,1,12,01,48,272,,03,35,198,24,31,50,075,34,13,07,323,*74
$GPGSV,3,2,12,06,49,181,25,21,08,091,21,16,66,319,32,29,12,039,*70
$GPGSV,3,3,12,23,33,312,39,14,12,154,24,32,16,236,,20,11,253,21*75
$GPGGA,004439.0,3109.549988,N,12122.644923,E,1,08,1.4,37.5,M,,,,*3F
$GPRMC,004439.0,A,3109.549988,N,12122.644923,E,,,260910,,,A*6E
$GPGSA,A,3,03,31,06,21,16,23,14,20,,,,,,2.4,1.4,2.0*1A
$GPVTG,,T,,M,0.0,N,0.0,K*4E
$GPGSV,3,1,12,01,48,272,,03,35,198,23,31,50,075,31,13,07,323,*76
$GPGSV,3,2,12,06,49,181,24,21,08,091,21,16,66,319,29,29,12,039,*7B
$GPGSV,3,3,12,23,33,312,36,14,12,154,21,32,16,236,,20,11,253,20*7E
$GPGGA,004440.0,3109.550049,N,12122.644913,E,1,08,1.2,37.5,M,,,,*38
$GPRMC,004440.0,A,3109.550049,N,12122.644913,E,,,260910,,,A*6F
$GPGSA,A,3,03,31,06,21,16,23,14,20,,,,,,2.3,1.2,1.9*11
$GPVTG,,T,,M,0.0,N,0.0,K*4E
$GPGSV,3,1,12,01,48,272,,03,35,198,23,31,50,075,29,13,07,323,*7F
$GPGSV,3,2,12,06,49,181,28,21,08,091,21,16,66,319,27,29,12,039,*79
$GPGSV,3,3,12,23,33,312,37,14,12,154,21,32,16,236,,20,11,253,26*79
$GPGGA,004441.0,3109.550119,N,12122.644999,E,1,08,1.2,37.5,M,,,,*3F
$GPRMC,004441.0,A,3109.550119,N,12122.644999,E,,,260910,,,A*68
$GPGSA,A,3,03,31,06,16,23,14,20,255,,,,,,2.4,1.2,2.1*2C
$GPVTG,,T,,M,0.0,N,0.0,K*4E
$GPGSV,3,1,12,01,48,272,,03,35,198,25,31,50,075,28,13,07,323,*78
$GPGSV,3,2,12,06,49,181,27,21,08,091,21,16,66,319,27,29,12,039,*76
$GPGSV,3,3,12,23,33,312,34,14,12,154,22,32,16,236,,20,11,253,26*79
$GPGGA,004442.0,3109.550192,N,12122.644943,E,1,08,1.1,37.5,M,,,,*3B
$GPRMC,004442.0,A,3109.550192,N,12122.644943,E,,,260910,,,A*6F
$GPGSA,A,3,03,31,06,16,23,14,255,255,,,,,,2.2,1.1,2.0*18
$GPVTG,,T,,M,0.0,N,0.0,K*4E
$GPGSV,3,1,12,01,48,272,,03,35,198,23,31,50,075,27,13,07,323,*71
$GPGSV,3,2,12,06,49,181,27,21,08,091,21,16,66,319,27,29,12,039,*76
$GPGSV,3,3,12,23,33,312,32,14,12,154,24,32,16,236,,20,11,253,21*7E
$GPGGA,004443.0,3109.550292,N,12122.644928,E,1,08,1.3,38.0,M,,,,*3C
$GPRMC,004443.0,A,3109.550292,N,12122.644928,E,,,260910,,,A*60
$GPGSA,A,3,03,31,06,16,23,14,20,255,,,,,,2.7,1.3,2.3*2C
$GPVTG,,T,,M,0.0,N,0.0,K*4E
$GPGSV,3,1,12,01,48,272,,03,35,198,24,31,50,075,27,13,07,323,*76
$GPGSV,3,2,12,06,49,181,26,21,08,091,20,16,66,319,27,29,12,039,*76
$GPGSV,3,3,12,23,33,312,35,14,12,154,23,32,16,236,,20,11,253,21*7E
$GPGGA,004444.0,3109.550295,N,12122.644938,E,1,08,1.1,38.0,M,,,,*3F
$GPRMC,004444.0,A,3109.550295,N,12122.644938,E,,,260910,,,A*61
$GPGSA,A,3,03,31,06,21,16,23,14,255,,,,,,2.1,1.1,1.8*21
$GPVTG,,T,,M,0.0,N,0.0,K*4E
$GPGSV,3,1,12,01,48,272,,03,35,198,25,31,50,075,28,13,07,323,*78
$GPGSV,3,2,12,06,49,181,29,21,08,091,21,16,66,319,27,29,12,039,*78
$GPGSV,3,3,12,23,33,312,34,14,12,154,25,32,16,236,,20,11,253,21*79
$GPGGA,004445.0,3109.550310,N,12122.644948,E,1,08,1.1,38.5,M,,,,*30
$GPRMC,004445.0,A,3109.550310,N,12122.644948,E,,,260910,,,A*6B
$GPGSA,A,3,03,31,06,21,16,23,14,20,,,,,,2.1,1.1,1.8*11
$GPVTG,,T,,M,0.0,N,0.0,K*4E
$GPGSV,3,1,12,01,48,272,,03,35,198,24,31,50,075,27,13,07,323,*76
$GPGSV,3,2,12,06,49,181,26,21,08,091,21,16,66,319,26,29,12,039,*76
$GPGSV,3,3,12,23,33,312,33,14,12,154,24,32,16,236,,20,11,253,21*7F
$GPGGA,004446.0,3109.550310,N,12122.644913,E,1,08,1.1,38.5,M,,,,*3D
$GPRMC,004446.0,A,3109.550310,N,12122.644913,E,,,260910,,,A*66
$GPGSA,A,3,03,31,06,21,16,23,14,20,,,,,,2.1,1.1,1.8*11
$GPVTG,,T,,M,0.0,N,0.0,K*4E
$GPGSV,3,1,12,01,48,272,,03,35,198,25,31,50,075,27,13,07,323,*77
$GPGSV,3,2,12,06,49,181,29,21,08,091,22,16,66,319,28,29,12,039,*74
$GPGSV,3,3,12,23,33,312,31,14,12,154,21,32,16,236,,20,11,253,22*7B
$GPGGA,004447.0,3109.550282,N,12122.644923,E,1,08,1.0,39.0,M,,,,*30
$GPRMC,004447.0,A,3109.550282,N,12122.644923,E,,,260910,,,A*6E
$GPGSA,A,3,03,31,06,21,16,23,14,20,,,,,,2.0,1.0,1.7*1E
$GPVTG,,T,,M,0.0,N,0.0,K*4E
$GPGSV,3,1,12,01,48,272,,03,35,198,24,31,50,075,27,13,07,323,*76
$GPGSV,3,2,12,06,49,181,25,21,08,091,20,16,66,319,27,29,12,039,*75
$GPGSV,3,3,12,23,33,312,33,14,12,154,21,32,16,236,,20,11,253,23*78
$GPGGA,004448.0,3109.550298,N,12122.644948,E,1,08,1.0,39.5,M,,,,*3C
$GPRMC,004448.0,A,3109.550298,N,12122.644948,E,,,260910,,,A*67
$GPGSA,A,3,03,31,06,21,16,23,20,255,,,,,,2.1,1.0,1.8*27
$GPVTG,,T,,M,0.0,N,0.0,K*4E
$GPGSV,3,1,12,01,48,272,,03,35,198,24,31,50,075,28,13,07,323,*79
$GPGSV,3,2,12,06,49,181,28,21,08,091,22,16,66,319,28,29,12,039,*75
$GPGSV,3,3,12,23,33,312,34,14,12,154,21,32,16,236,,20,11,253,23*7F
$GPGGA,004449.0,3109.550287,N,12122.644908,E,1,08,1.0,39.5,M,,,,*37
$GPRMC,004449.0,A,3109.550287,N,12122.644908,E,,,260910,,,A*6C
$GPGSA,A,3,03,31,06,21,16,23,14,255,,,,,,2.1,1.0,1.8*20
$GPVTG,,T,,M,0.0,N,0.0,K*4E
$GPGSV,3,1,12,01,48,272,,03,35,198,24,31,50,075,28,13,07,323,*79
$GPGSV,3,2,12,06,49,181,28,21,08,091,21,16,66,319,27,29,12,039,*79
$GPGSV,3,3,12,23,33,312,33,14,12,154,23,32,16,236,,20,11,253,23*7A
$GPGGA,004450.0,3109.550292,N,12122.644938,E,1,08,1.0,39.5,M,,,,*38
$GPRMC,004450.0,A,3109.550292,N,12122.644938,E,,,260910,,,A*63
$GPGSA,A,3,03,31,06,21,16,23,14,20,,,,,,2.1,1.0,1.8*10
$GPVTG,,T,,M,0.0,N,0.0,K*4E
$GPGSV,3,1,12,01,48,272,,03,35,198,24,31,50,075,28,13,07,323,*79
$GPGSV,3,2,12,06,49,181,28,21,08,091,21,16,66,319,28,29,12,039,*76
$GPGSV,3,3,12,23,33,312,33,14,12,154,25,32,16,236,,20,11,253,25*7A
$GPGGA,004451.0,3109.550308,N,12122.645014,E,1,08,1.0,40.0,M,,,,*36
$GPRMC,004451.0,A,3109.550308,N,12122.645014,E,,,260910,,,A*66
$GPGSA,A,3,03,31,06,16,23,14,20,255,,,,,,2.1,1.0,1.8*21
$GPVTG,,T,,M,0.0,N,0.0,K*4E
$GPGSV,3,1,12,01,48,272,,03,35,198,26,31,50,075,27,13,07,323,*74
$GPGSV,3,2,12,06,49,181,28,21,08,091,21,16,66,319,26,29,12,039,*78
$GPGSV,3,3,12,23,33,312,32,14,12,154,20,32,16,236,,20,11,253,23*78
$GPGGA,004452.0,3109.550270,N,12122.645069,E,1,08,1.0,40.5,M,,,,*34
$GPRMC,004452.0,A,3109.550270,N,12122.645069,E,,,260910,,,A*61
$GPGSA,A,3,03,31,06,16,23,14,20,255,,,,,,2.2,1.0,1.9*23
$GPVTG,,T,,M,0.0,N,0.0,K*4E
$GPGSV,3,1,12,01,48,272,,03,35,198,24,31,50,075,28,13,07,323,*79
$GPGSV,3,2,12,06,49,181,28,21,08,091,21,16,66,319,27,29,12,039,*79
$GPGSV,3,3,12,23,33,312,32,14,12,154,20,32,16,236,,20,11,253,23*78
$GPGGA,004453.0,3109.548376,N,12122.655218,E,1,08,1.2,39.5,M,,,,*32
